{
  "venues": [
    {
      "id": 1,
      "location": {
        "postalCode": "87114-4614",
        "name": "Dominicport"
      },
      "pricePerNightInEUR": 55.86,
      "rating": 4.8,
      "capacity": 5,
      "name": "acidic now",
      "albumId": 132
    },
    {
      "id": 2,
      "location": {
        "postalCode": "60870-9110",
        "name": "Lake Chanelbury"
      },
      "pricePerNightInEUR": 120.64,
      "rating": 4.3,
      "capacity": 9,
      "name": "hourly horse",
      "albumId": 474
    },
    {
      "id": 3,
      "location": {
        "postalCode": "35906-0563",
        "name": "Morissettebury"
      },
      "pricePerNightInEUR": 97.15,
      "rating": 4.3,
      "capacity": 4,
      "name": "psst swathe",
      "albumId": 67
    },
    {
      "id": 4,
      "location": {
        "postalCode": "74076-1008",
        "name": "Cassinburgh"
      },
      "pricePerNightInEUR": 39.63,
      "rating": 4.3,
      "capacity": 4,
      "name": "commonly loftily",
      "albumId": 75
    },
    {
      "id": 5,
      "location": {
        "postalCode": "38994",
        "name": "Labadieworth"
      },
      "pricePerNightInEUR": 110.42,
      "rating": 4.4,
      "capacity": 5,
      "name": "fog afford",
      "albumId": 404
    },
    {
      "id": 6,
      "location": {
        "postalCode": "07346",
        "name": "Rippinfort"
      },
      "pricePerNightInEUR": 141.26,
      "rating": 3.2,
      "capacity": 3,
      "name": "yippee terraform",
      "albumId": 21
    },
    {
      "id": 7,
      "location": {
        "postalCode": "99425",
        "name": "DeKalb"
      },
      "pricePerNightInEUR": 132.14,
      "rating": 3.1,
      "capacity": 4,
      "name": "upright on",
      "albumId": 322
    },
    {
      "id": 8,
      "location": {
        "postalCode": "15092",
        "name": "Menifee"
      },
      "pricePerNightInEUR": 199.19,
      "rating": 3.4,
      "capacity": 7,
      "name": "whole wordy",
      "albumId": 23
    },
    {
      "id": 9,
      "location": {
        "postalCode": "40304-7752",
        "name": "Lake Dorothyworth"
      },
      "pricePerNightInEUR": 16.35,
      "rating": 4.7,
      "capacity": 2,
      "name": "once help",
      "albumId": 137
    },
    {
      "id": 10,
      "location": {
        "postalCode": "64845",
        "name": "Marquardtfort"
      },
      "pricePerNightInEUR": 67.8,
      "rating": 3.6,
      "capacity": 7,
      "name": "gripper apprehensive",
      "albumId": 100
    },
    {
      "id": 11,
      "location": {
        "postalCode": "28306-6861",
        "name": "Vallejo"
      },
      "pricePerNightInEUR": 142.77,
      "rating": 4.3,
      "capacity": 5,
      "name": "all hence",
      "albumId": 218
    },
    {
      "id": 12,
      "location": {
        "postalCode": "82118-1702",
        "name": "North Will"
      },
      "pricePerNightInEUR": 10,
      "rating": 3.1,
      "capacity": 4,
      "name": "onto qualified",
      "albumId": 64
    },
    {
      "id": 13,
      "location": {
        "postalCode": "12732-8424",
        "name": "East Lansing"
      },
      "pricePerNightInEUR": 74.71,
      "rating": 4.6,
      "capacity": 2,
      "name": "whether asset",
      "albumId": 171
    },
    {
      "id": 14,
      "location": {
        "postalCode": "08079",
        "name": "Hesterfort"
      },
      "pricePerNightInEUR": 36.11,
      "rating": 3.6,
      "capacity": 7,
      "name": "unlike provided",
      "albumId": 480
    },
    {
      "id": 15,
      "location": {
        "postalCode": "41664-9145",
        "name": "South Pansy"
      },
      "pricePerNightInEUR": 179.22,
      "rating": 4.3,
      "capacity": 5,
      "name": "daintily ack",
      "albumId": 403
    },
    {
      "id": 16,
      "location": {
        "postalCode": "04518",
        "name": "Katelynnchester"
      },
      "pricePerNightInEUR": 194.56,
      "rating": 3.9,
      "capacity": 5,
      "name": "hippodrome hence",
      "albumId": 185
    },
    {
      "id": 17,
      "location": {
        "postalCode": "77953-7516",
        "name": "Lake Talon"
      },
      "pricePerNightInEUR": 144.79,
      "rating": 3.9,
      "capacity": 4,
      "name": "at seldom",
      "albumId": 6
    },
    {
      "id": 18,
      "location": {
        "postalCode": "13341-0164",
        "name": "Jonathanmouth"
      },
      "pricePerNightInEUR": 111.66,
      "rating": 3.6,
      "capacity": 7,
      "name": "fooey desk",
      "albumId": 442
    },
    {
      "id": 19,
      "location": {
        "postalCode": "55492",
        "name": "Port Jamarcus"
      },
      "pricePerNightInEUR": 79.47,
      "rating": 3.7,
      "capacity": 9,
      "name": "which times",
      "albumId": 359
    },
    {
      "id": 20,
      "location": {
        "postalCode": "76816-5564",
        "name": "Fort Huldaville"
      },
      "pricePerNightInEUR": 177.46,
      "rating": 3.5,
      "capacity": 5,
      "name": "circa and",
      "albumId": 36
    },
    {
      "id": 21,
      "location": {
        "postalCode": "70541",
        "name": "Beiershire"
      },
      "pricePerNightInEUR": 101.87,
      "rating": 3,
      "capacity": 4,
      "name": "gadzooks satirise",
      "albumId": 266
    },
    {
      "id": 22,
      "location": {
        "postalCode": "31527",
        "name": "Mission Viejo"
      },
      "pricePerNightInEUR": 168.33,
      "rating": 3.5,
      "capacity": 10,
      "name": "sniff in",
      "albumId": 14
    },
    {
      "id": 23,
      "location": {
        "postalCode": "21870",
        "name": "Attleboro"
      },
      "pricePerNightInEUR": 152.36,
      "rating": 4.9,
      "capacity": 9,
      "name": "destock before",
      "albumId": 260
    },
    {
      "id": 24,
      "location": {
        "postalCode": "48536-3873",
        "name": "Lake Milesfurt"
      },
      "pricePerNightInEUR": 185.5,
      "rating": 3.7,
      "capacity": 5,
      "name": "other dimly",
      "albumId": 408
    },
    {
      "id": 25,
      "location": {
        "postalCode": "33899-4372",
        "name": "Handland"
      },
      "pricePerNightInEUR": 115.41,
      "rating": 4.7,
      "capacity": 7,
      "name": "tomorrow and",
      "albumId": 182
    },
    {
      "id": 26,
      "location": {
        "postalCode": "63892",
        "name": "Watsicamouth"
      },
      "pricePerNightInEUR": 21.18,
      "rating": 4.9,
      "capacity": 6,
      "name": "foolishly schnitzel",
      "albumId": 367
    },
    {
      "id": 27,
      "location": {
        "postalCode": "31923",
        "name": "South Carter"
      },
      "pricePerNightInEUR": 15.48,
      "rating": 3.7,
      "capacity": 10,
      "name": "incidentally gosh",
      "albumId": 483
    },
    {
      "id": 28,
      "location": {
        "postalCode": "37709-3954",
        "name": "New Lizeth"
      },
      "pricePerNightInEUR": 105.98,
      "rating": 3.8,
      "capacity": 9,
      "name": "arcade what",
      "albumId": 24
    },
    {
      "id": 29,
      "location": {
        "postalCode": "05542",
        "name": "St. Clair Shores"
      },
      "pricePerNightInEUR": 68.13,
      "rating": 4,
      "capacity": 9,
      "name": "anxiously meanwhile",
      "albumId": 277
    },
    {
      "id": 30,
      "location": {
        "postalCode": "44003-0862",
        "name": "North Glendastad"
      },
      "pricePerNightInEUR": 156.31,
      "rating": 4.8,
      "capacity": 9,
      "name": "fall but",
      "albumId": 200
    },
    {
      "id": 31,
      "location": {
        "postalCode": "84034",
        "name": "Smithberg"
      },
      "pricePerNightInEUR": 187.34,
      "rating": 4.5,
      "capacity": 3,
      "name": "eek when",
      "albumId": 424
    },
    {
      "id": 32,
      "location": {
        "postalCode": "04401",
        "name": "East Lavinastead"
      },
      "pricePerNightInEUR": 72.92,
      "rating": 3.1,
      "capacity": 7,
      "name": "alarmed or",
      "albumId": 169
    },
    {
      "id": 33,
      "location": {
        "postalCode": "21974-5176",
        "name": "Lake Westley"
      },
      "pricePerNightInEUR": 92.62,
      "rating": 4.7,
      "capacity": 7,
      "name": "gah whether",
      "albumId": 80
    },
    {
      "id": 34,
      "location": {
        "postalCode": "25638",
        "name": "Tillmanfurt"
      },
      "pricePerNightInEUR": 183.14,
      "rating": 4.5,
      "capacity": 9,
      "name": "notwithstanding ew",
      "albumId": 327
    },
    {
      "id": 35,
      "location": {
        "postalCode": "44876-5716",
        "name": "Fort Duanefort"
      },
      "pricePerNightInEUR": 158.1,
      "rating": 4.2,
      "capacity": 3,
      "name": "fooey any",
      "albumId": 431
    },
    {
      "id": 36,
      "location": {
        "postalCode": "82987-4489",
        "name": "East Cruzboro"
      },
      "pricePerNightInEUR": 143.65,
      "rating": 4.7,
      "capacity": 8,
      "name": "likewise phooey",
      "albumId": 485
    },
    {
      "id": 37,
      "location": {
        "postalCode": "27973",
        "name": "Reichelton"
      },
      "pricePerNightInEUR": 94.31,
      "rating": 4.4,
      "capacity": 7,
      "name": "fencing boohoo",
      "albumId": 175
    },
    {
      "id": 38,
      "location": {
        "postalCode": "24133",
        "name": "Marysville"
      },
      "pricePerNightInEUR": 56.99,
      "rating": 4.8,
      "capacity": 5,
      "name": "onto murky",
      "albumId": 361
    },
    {
      "id": 39,
      "location": {
        "postalCode": "42814-5925",
        "name": "Shainaview"
      },
      "pricePerNightInEUR": 123.5,
      "rating": 4.5,
      "capacity": 9,
      "name": "rosemary overconfidently",
      "albumId": 170
    },
    {
      "id": 40,
      "location": {
        "postalCode": "41206-7611",
        "name": "Hughfield"
      },
      "pricePerNightInEUR": 23.7,
      "rating": 3.8,
      "capacity": 2,
      "name": "syringe farm",
      "albumId": 103
    },
    {
      "id": 41,
      "location": {
        "postalCode": "79107",
        "name": "North Addie"
      },
      "pricePerNightInEUR": 21.05,
      "rating": 3.8,
      "capacity": 3,
      "name": "round under",
      "albumId": 60
    },
    {
      "id": 42,
      "location": {
        "postalCode": "26677",
        "name": "Franeyland"
      },
      "pricePerNightInEUR": 149.14,
      "rating": 3.2,
      "capacity": 7,
      "name": "searchingly instead",
      "albumId": 357
    },
    {
      "id": 43,
      "location": {
        "postalCode": "50735-0268",
        "name": "West Erickastead"
      },
      "pricePerNightInEUR": 192.37,
      "rating": 5,
      "capacity": 5,
      "name": "wobbly among",
      "albumId": 472
    },
    {
      "id": 44,
      "location": {
        "postalCode": "14617-8835",
        "name": "Veumtown"
      },
      "pricePerNightInEUR": 65.27,
      "rating": 3.1,
      "capacity": 3,
      "name": "since eek",
      "albumId": 273
    },
    {
      "id": 45,
      "location": {
        "postalCode": "70885-6882",
        "name": "Quigleystad"
      },
      "pricePerNightInEUR": 115,
      "rating": 3.3,
      "capacity": 2,
      "name": "menacing repeatedly",
      "albumId": 156
    },
    {
      "id": 46,
      "location": {
        "postalCode": "18377-4314",
        "name": "Sparks"
      },
      "pricePerNightInEUR": 172.77,
      "rating": 3.4,
      "capacity": 10,
      "name": "knowledgeably reference",
      "albumId": 273
    },
    {
      "id": 47,
      "location": {
        "postalCode": "63408",
        "name": "Yostside"
      },
      "pricePerNightInEUR": 169.51,
      "rating": 4.5,
      "capacity": 4,
      "name": "zowie well-to-do",
      "albumId": 122
    },
    {
      "id": 48,
      "location": {
        "postalCode": "37493-0614",
        "name": "North Ashlee"
      },
      "pricePerNightInEUR": 93.79,
      "rating": 4.3,
      "capacity": 2,
      "name": "eulogise than",
      "albumId": 235
    },
    {
      "id": 49,
      "location": {
        "postalCode": "86581-6348",
        "name": "Cheektowaga"
      },
      "pricePerNightInEUR": 171.41,
      "rating": 3.8,
      "capacity": 5,
      "name": "miscalculate midst",
      "albumId": 180
    },
    {
      "id": 50,
      "location": {
        "postalCode": "99517-4139",
        "name": "Lake Florineberg"
      },
      "pricePerNightInEUR": 138.27,
      "rating": 3.6,
      "capacity": 2,
      "name": "under freely",
      "albumId": 74
    },
    {
      "id": 51,
      "location": {
        "postalCode": "13669",
        "name": "North Ellsworthstad"
      },
      "pricePerNightInEUR": 168.81,
      "rating": 3,
      "capacity": 6,
      "name": "vain easily",
      "albumId": 320
    },
    {
      "id": 52,
      "location": {
        "postalCode": "13791-6461",
        "name": "Hacienda Heights"
      },
      "pricePerNightInEUR": 105.3,
      "rating": 3.6,
      "capacity": 7,
      "name": "emergent blah",
      "albumId": 461
    },
    {
      "id": 53,
      "location": {
        "postalCode": "02833-6199",
        "name": "Fort Demondtown"
      },
      "pricePerNightInEUR": 188.74,
      "rating": 3.1,
      "capacity": 3,
      "name": "well-lit unless",
      "albumId": 111
    },
    {
      "id": 54,
      "location": {
        "postalCode": "95855-2349",
        "name": "South Gillian"
      },
      "pricePerNightInEUR": 61.23,
      "rating": 3,
      "capacity": 2,
      "name": "like in",
      "albumId": 274
    },
    {
      "id": 55,
      "location": {
        "postalCode": "15023-0737",
        "name": "Chapel Hill"
      },
      "pricePerNightInEUR": 121.24,
      "rating": 4,
      "capacity": 3,
      "name": "softly tooth",
      "albumId": 440
    },
    {
      "id": 56,
      "location": {
        "postalCode": "30572-7237",
        "name": "East Jazmin"
      },
      "pricePerNightInEUR": 93.85,
      "rating": 4.1,
      "capacity": 3,
      "name": "why woot",
      "albumId": 380
    },
    {
      "id": 57,
      "location": {
        "postalCode": "08305-3411",
        "name": "Jacobiland"
      },
      "pricePerNightInEUR": 14.67,
      "rating": 3.5,
      "capacity": 5,
      "name": "chow aw",
      "albumId": 169
    },
    {
      "id": 58,
      "location": {
        "postalCode": "71446",
        "name": "Conncester"
      },
      "pricePerNightInEUR": 168.46,
      "rating": 4.4,
      "capacity": 2,
      "name": "bruised fun",
      "albumId": 258
    },
    {
      "id": 59,
      "location": {
        "postalCode": "11794",
        "name": "Dustinland"
      },
      "pricePerNightInEUR": 104.14,
      "rating": 4.2,
      "capacity": 2,
      "name": "mean till",
      "albumId": 57
    },
    {
      "id": 60,
      "location": {
        "postalCode": "97342",
        "name": "Damarisfort"
      },
      "pricePerNightInEUR": 13.3,
      "rating": 4.7,
      "capacity": 9,
      "name": "deploy for",
      "albumId": 489
    },
    {
      "id": 61,
      "location": {
        "postalCode": "05542-1658",
        "name": "Stratford"
      },
      "pricePerNightInEUR": 176.43,
      "rating": 3.3,
      "capacity": 3,
      "name": "well-groomed expansion",
      "albumId": 483
    },
    {
      "id": 62,
      "location": {
        "postalCode": "15648-4360",
        "name": "East Coymouth"
      },
      "pricePerNightInEUR": 27.57,
      "rating": 3.2,
      "capacity": 6,
      "name": "unnecessarily promptly",
      "albumId": 291
    },
    {
      "id": 63,
      "location": {
        "postalCode": "00119-6237",
        "name": "Lake Pat"
      },
      "pricePerNightInEUR": 64.54,
      "rating": 3.8,
      "capacity": 9,
      "name": "hmph pace",
      "albumId": 140
    },
    {
      "id": 64,
      "location": {
        "postalCode": "59247-7470",
        "name": "West Mikelmouth"
      },
      "pricePerNightInEUR": 93.59,
      "rating": 5,
      "capacity": 7,
      "name": "portly rosy",
      "albumId": 105
    },
    {
      "id": 65,
      "location": {
        "postalCode": "17262-0194",
        "name": "East Karl"
      },
      "pricePerNightInEUR": 153.79,
      "rating": 3.8,
      "capacity": 2,
      "name": "airline breastplate",
      "albumId": 205
    },
    {
      "id": 66,
      "location": {
        "postalCode": "74804",
        "name": "Yesseniaburgh"
      },
      "pricePerNightInEUR": 37.29,
      "rating": 4.2,
      "capacity": 7,
      "name": "highly onto",
      "albumId": 415
    },
    {
      "id": 67,
      "location": {
        "postalCode": "39051-6835",
        "name": "East Ayanaview"
      },
      "pricePerNightInEUR": 108.48,
      "rating": 3.4,
      "capacity": 4,
      "name": "outlying against",
      "albumId": 334
    },
    {
      "id": 68,
      "location": {
        "postalCode": "26900-5004",
        "name": "Okunevaberg"
      },
      "pricePerNightInEUR": 145.97,
      "rating": 3.7,
      "capacity": 7,
      "name": "verbally violin",
      "albumId": 463
    },
    {
      "id": 69,
      "location": {
        "postalCode": "58342-3589",
        "name": "Pocatello"
      },
      "pricePerNightInEUR": 55.01,
      "rating": 4,
      "capacity": 5,
      "name": "reschedule yowza",
      "albumId": 2
    },
    {
      "id": 70,
      "location": {
        "postalCode": "24271",
        "name": "West Winifred"
      },
      "pricePerNightInEUR": 102.67,
      "rating": 3.6,
      "capacity": 10,
      "name": "questionably immediate",
      "albumId": 332
    },
    {
      "id": 71,
      "location": {
        "postalCode": "13409",
        "name": "Port Garrick"
      },
      "pricePerNightInEUR": 70.49,
      "rating": 4,
      "capacity": 7,
      "name": "ah talkative",
      "albumId": 101
    },
    {
      "id": 72,
      "location": {
        "postalCode": "27754-7657",
        "name": "Fannytown"
      },
      "pricePerNightInEUR": 41.97,
      "rating": 3.3,
      "capacity": 2,
      "name": "legislature baa",
      "albumId": 144
    },
    {
      "id": 73,
      "location": {
        "postalCode": "08729",
        "name": "Bloomington"
      },
      "pricePerNightInEUR": 111.79,
      "rating": 4.8,
      "capacity": 2,
      "name": "own super",
      "albumId": 410
    },
    {
      "id": 74,
      "location": {
        "postalCode": "94552",
        "name": "Pinellas Park"
      },
      "pricePerNightInEUR": 35.49,
      "rating": 3.7,
      "capacity": 9,
      "name": "incidentally acidic",
      "albumId": 461
    },
    {
      "id": 75,
      "location": {
        "postalCode": "41131",
        "name": "Provo"
      },
      "pricePerNightInEUR": 85.5,
      "rating": 3.5,
      "capacity": 4,
      "name": "neglect circa",
      "albumId": 270
    },
    {
      "id": 76,
      "location": {
        "postalCode": "91296",
        "name": "Kevonstad"
      },
      "pricePerNightInEUR": 191.08,
      "rating": 4.8,
      "capacity": 4,
      "name": "lest highly",
      "albumId": 456
    },
    {
      "id": 77,
      "location": {
        "postalCode": "50373",
        "name": "Stiedemannfort"
      },
      "pricePerNightInEUR": 26.74,
      "rating": 4.8,
      "capacity": 6,
      "name": "instead knowledgeably",
      "albumId": 355
    },
    {
      "id": 78,
      "location": {
        "postalCode": "90463-0162",
        "name": "Katrinashire"
      },
      "pricePerNightInEUR": 84.51,
      "rating": 3.2,
      "capacity": 8,
      "name": "mid ameliorate",
      "albumId": 79
    },
    {
      "id": 79,
      "location": {
        "postalCode": "48624",
        "name": "Daynaboro"
      },
      "pricePerNightInEUR": 151.96,
      "rating": 3.6,
      "capacity": 4,
      "name": "off cheerfully",
      "albumId": 395
    },
    {
      "id": 80,
      "location": {
        "postalCode": "38766",
        "name": "East Cordelia"
      },
      "pricePerNightInEUR": 62.14,
      "rating": 4.7,
      "capacity": 6,
      "name": "dispense whereas",
      "albumId": 411
    },
    {
      "id": 81,
      "location": {
        "postalCode": "82578",
        "name": "Waterloo"
      },
      "pricePerNightInEUR": 86.65,
      "rating": 4.7,
      "capacity": 5,
      "name": "discourse upright",
      "albumId": 23
    },
    {
      "id": 82,
      "location": {
        "postalCode": "99656-7607",
        "name": "South Heidiworth"
      },
      "pricePerNightInEUR": 142.44,
      "rating": 4.4,
      "capacity": 4,
      "name": "pity ick",
      "albumId": 497
    },
    {
      "id": 83,
      "location": {
        "postalCode": "10114-7249",
        "name": "East Zulashire"
      },
      "pricePerNightInEUR": 135.08,
      "rating": 4.9,
      "capacity": 7,
      "name": "keenly to",
      "albumId": 497
    },
    {
      "id": 84,
      "location": {
        "postalCode": "20613-3864",
        "name": "Hayliefurt"
      },
      "pricePerNightInEUR": 29.81,
      "rating": 4.9,
      "capacity": 2,
      "name": "shell between",
      "albumId": 169
    },
    {
      "id": 85,
      "location": {
        "postalCode": "61728-8469",
        "name": "Port Velmaside"
      },
      "pricePerNightInEUR": 168.8,
      "rating": 3.8,
      "capacity": 3,
      "name": "glittering because",
      "albumId": 419
    },
    {
      "id": 86,
      "location": {
        "postalCode": "88802",
        "name": "Lake Blazeberg"
      },
      "pricePerNightInEUR": 69.86,
      "rating": 3.1,
      "capacity": 9,
      "name": "assist how",
      "albumId": 32
    },
    {
      "id": 87,
      "location": {
        "postalCode": "72547-4755",
        "name": "Biloxi"
      },
      "pricePerNightInEUR": 83.17,
      "rating": 4,
      "capacity": 9,
      "name": "meh fooey",
      "albumId": 488
    },
    {
      "id": 88,
      "location": {
        "postalCode": "92413",
        "name": "Rippinmouth"
      },
      "pricePerNightInEUR": 79.41,
      "rating": 3.2,
      "capacity": 5,
      "name": "unto although",
      "albumId": 168
    },
    {
      "id": 89,
      "location": {
        "postalCode": "92318",
        "name": "West Retha"
      },
      "pricePerNightInEUR": 162.86,
      "rating": 3.9,
      "capacity": 9,
      "name": "made-up midst",
      "albumId": 424
    },
    {
      "id": 90,
      "location": {
        "postalCode": "66691-7546",
        "name": "Emmetport"
      },
      "pricePerNightInEUR": 137.67,
      "rating": 3.1,
      "capacity": 3,
      "name": "nor punctuation",
      "albumId": 28
    },
    {
      "id": 91,
      "location": {
        "postalCode": "30542-2191",
        "name": "Muellershire"
      },
      "pricePerNightInEUR": 31.54,
      "rating": 5,
      "capacity": 8,
      "name": "grimy young",
      "albumId": 367
    },
    {
      "id": 92,
      "location": {
        "postalCode": "04818-6497",
        "name": "Wilmerside"
      },
      "pricePerNightInEUR": 29.45,
      "rating": 4.3,
      "capacity": 7,
      "name": "oh under",
      "albumId": 199
    },
    {
      "id": 93,
      "location": {
        "postalCode": "28155-6130",
        "name": "Tedburgh"
      },
      "pricePerNightInEUR": 47.09,
      "rating": 3.4,
      "capacity": 9,
      "name": "store bah",
      "albumId": 500
    },
    {
      "id": 94,
      "location": {
        "postalCode": "26677",
        "name": "Kiaraburgh"
      },
      "pricePerNightInEUR": 195.08,
      "rating": 3.1,
      "capacity": 4,
      "name": "elastic hmph",
      "albumId": 379
    },
    {
      "id": 95,
      "location": {
        "postalCode": "35583",
        "name": "East Leilaniboro"
      },
      "pricePerNightInEUR": 97.17,
      "rating": 3.9,
      "capacity": 10,
      "name": "valiantly fearless",
      "albumId": 18
    },
    {
      "id": 96,
      "location": {
        "postalCode": "56545",
        "name": "Tysonville"
      },
      "pricePerNightInEUR": 129.67,
      "rating": 4.3,
      "capacity": 6,
      "name": "gigantic consequently",
      "albumId": 250
    },
    {
      "id": 97,
      "location": {
        "postalCode": "57390-7144",
        "name": "Jamisonland"
      },
      "pricePerNightInEUR": 36.32,
      "rating": 4.8,
      "capacity": 9,
      "name": "and ignorant",
      "albumId": 342
    },
    {
      "id": 98,
      "location": {
        "postalCode": "92095",
        "name": "Lake Reggieborough"
      },
      "pricePerNightInEUR": 113.49,
      "rating": 4.2,
      "capacity": 6,
      "name": "hollow indeed",
      "albumId": 180
    },
    {
      "id": 99,
      "location": {
        "postalCode": "82766-4873",
        "name": "West Guy"
      },
      "pricePerNightInEUR": 61.33,
      "rating": 3.1,
      "capacity": 9,
      "name": "or whoever",
      "albumId": 315
    },
    {
      "id": 100,
      "location": {
        "postalCode": "18497",
        "name": "Adafort"
      },
      "pricePerNightInEUR": 85.11,
      "rating": 3.7,
      "capacity": 8,
      "name": "even dispense",
      "albumId": 288
    }
  ],
  "venuesDetails": [
    {
      "id": 1,
      "location": {
        "postalCode": "87114-4614",
        "name": "Dominicport"
      },
      "pricePerNightInEUR": 55.86,
      "rating": 4.8,
      "capacity": 5,
      "name": "acidic now",
      "albumId": 132,
      "venueId": 1,
      "numberOfReviews": 473,
      "description": "Autem defluo quia voveo cunabula sollers candidus spargo spargo aegre. Statua possimus accommodo corroboro voco accendo occaecati brevis civis. Spiritus conturbo vilitas carbo vomito labore natus facere.",
      "features": [
        "hypoallergenic bedding",
        "parking",
        "speakers",
        "WiFi",
        "kitchen facilities",
        "pet friendly"
      ],
      "sleepingDetails": {
        "maxCapacity": 8,
        "amountOfBeds": 2
      },
      "checkInHour": "12pm",
      "checkOutHour": "10am",
      "distanceFromCityCenterInKM": 14,
      "contactDetails": {
        "phone": "798-602-8100 x59657",
        "email": "Marlin_Hamill56@gmail.com"
      }
    },
    {
      "id": 2,
      "location": {
        "postalCode": "60870-9110",
        "name": "Lake Chanelbury"
      },
      "pricePerNightInEUR": 120.64,
      "rating": 4.3,
      "capacity": 9,
      "name": "hourly horse",
      "albumId": 474,
      "venueId": 2,
      "numberOfReviews": 294,
      "description": "Patruus conitor arguo canis cohaero vel arbustum coniecto abduco. Utrum nostrum suasoria apto sursum voluntarius desidero tonsor pax. Ascisco voco peccatus tricesimus conicio custodia.",
      "features": [
        "WiFi",
        "speakers",
        "bathroom facilities",
        "parking",
        "kitchen facilities",
        "hypoallergenic bedding",
        "lake and mountains nearby"
      ],
      "sleepingDetails": {
        "maxCapacity": 11,
        "amountOfBeds": 3
      },
      "checkInHour": "12pm",
      "checkOutHour": "10am",
      "distanceFromCityCenterInKM": 11,
      "contactDetails": {
        "phone": "839.283.6780 x3409",
        "email": "Agustin.Berge85@gmail.com"
      }
    },
    {
      "id": 3,
      "location": {
        "postalCode": "35906-0563",
        "name": "Morissettebury"
      },
      "pricePerNightInEUR": 97.15,
      "rating": 4.3,
      "capacity": 4,
      "name": "psst swathe",
      "albumId": 67,
      "venueId": 3,
      "numberOfReviews": 347,
      "description": "Denique perferendis cervus uberrime. Accusator creo sodalitas ex aestus adamo tergum aliquid eos. Ventosus surgo degusto talio corroboro.",
      "features": [
        "TV",
        "WiFi",
        "hypoallergenic bedding",
        "bathroom facilities",
        "lake and mountains nearby",
        "speakers"
      ],
      "sleepingDetails": {
        "maxCapacity": 8,
        "amountOfBeds": 2
      },
      "checkInHour": "12pm",
      "checkOutHour": "10am",
      "distanceFromCityCenterInKM": 1,
      "contactDetails": {
        "phone": "(869) 931-6304 x560",
        "email": "Berneice47@hotmail.com"
      }
    },
    {
      "id": 4,
      "location": {
        "postalCode": "74076-1008",
        "name": "Cassinburgh"
      },
      "pricePerNightInEUR": 39.63,
      "rating": 4.3,
      "capacity": 4,
      "name": "commonly loftily",
      "albumId": 75,
      "venueId": 4,
      "numberOfReviews": 401,
      "description": "Debeo facere statua antea venia conor apparatus. Sollicito aestas atque tunc sit alius colligo vox. Bellicus absconditus nemo sodalitas tantillus comminor.",
      "features": [
        "TV",
        "fireplace",
        "bathroom facilities",
        "kitchen facilities",
        "lake and mountains nearby",
        "WiFi",
        "parking",
        "hypoallergenic bedding",
        "pet friendly"
      ],
      "sleepingDetails": {
        "maxCapacity": 7,
        "amountOfBeds": 6
      },
      "checkInHour": "12pm",
      "checkOutHour": "10am",
      "distanceFromCityCenterInKM": 7,
      "contactDetails": {
        "phone": "993.898.2974 x2941",
        "email": "Elwin59@hotmail.com"
      }
    },
    {
      "id": 5,
      "location": {
        "postalCode": "38994",
        "name": "Labadieworth"
      },
      "pricePerNightInEUR": 110.42,
      "rating": 4.4,
      "capacity": 5,
      "name": "fog afford",
      "albumId": 404,
      "venueId": 5,
      "numberOfReviews": 463,
      "description": "Quaerat thalassinus toties absum stillicidium timidus uxor capitulus. Tot arx caute patrocinor ter thema derelinquo. Admoveo adeptio id absque una.",
      "features": [
        "pet friendly",
        "lake and mountains nearby",
        "speakers",
        "WiFi",
        "TV",
        "parking",
        "kitchen facilities",
        "fireplace",
        "hypoallergenic bedding"
      ],
      "sleepingDetails": {
        "maxCapacity": 9,
        "amountOfBeds": 2
      },
      "checkInHour": "12pm",
      "checkOutHour": "10am",
      "distanceFromCityCenterInKM": 7,
      "contactDetails": {
        "phone": "1-690-762-4423 x79775",
        "email": "Cara60@hotmail.com"
      }
    },
    {
      "id": 6,
      "location": {
        "postalCode": "07346",
        "name": "Rippinfort"
      },
      "pricePerNightInEUR": 141.26,
      "rating": 3.2,
      "capacity": 3,
      "name": "yippee terraform",
      "albumId": 21,
      "venueId": 6,
      "numberOfReviews": 73,
      "description": "Officia ventus commodi suadeo virtus. Cibus summisse abutor eius sordeo acerbitas. Verumtamen tumultus cilicium tergeo assumenda peior tibi ut quidem deludo.",
      "features": [
        "speakers",
        "WiFi",
        "parking",
        "lake and mountains nearby",
        "pet friendly",
        "hypoallergenic bedding"
      ],
      "sleepingDetails": {
        "maxCapacity": 6,
        "amountOfBeds": 2
      },
      "checkInHour": "12pm",
      "checkOutHour": "10am",
      "distanceFromCityCenterInKM": 6,
      "contactDetails": {
        "phone": "325.959.5101",
        "email": "Will.Heathcote@hotmail.com"
      }
    },
    {
      "id": 7,
      "location": {
        "postalCode": "99425",
        "name": "DeKalb"
      },
      "pricePerNightInEUR": 132.14,
      "rating": 3.1,
      "capacity": 4,
      "name": "upright on",
      "albumId": 322,
      "venueId": 7,
      "numberOfReviews": 407,
      "description": "Peior vilitas degenero eius aeternus. Tantum aufero decumbo delibero suasoria ustulo currus vitae animi compono. Trucido depono usque voluptas claudeo.",
      "features": [
        "WiFi",
        "parking",
        "lake and mountains nearby",
        "kitchen facilities",
        "TV",
        "hypoallergenic bedding"
      ],
      "sleepingDetails": {
        "maxCapacity": 7,
        "amountOfBeds": 5
      },
      "checkInHour": "12pm",
      "checkOutHour": "10am",
      "distanceFromCityCenterInKM": 12,
      "contactDetails": {
        "phone": "(271) 372-0873",
        "email": "Serenity.OKon@yahoo.com"
      }
    },
    {
      "id": 8,
      "location": {
        "postalCode": "15092",
        "name": "Menifee"
      },
      "pricePerNightInEUR": 199.19,
      "rating": 3.4,
      "capacity": 7,
      "name": "whole wordy",
      "albumId": 23,
      "venueId": 8,
      "numberOfReviews": 141,
      "description": "Umbra crustulum cicuta bos ultra amita abutor cogito patior. Socius impedit video inventore caelum decimus aspicio. Canonicus demulceo ater consuasor.",
      "features": [
        "parking",
        "pet friendly",
        "kitchen facilities",
        "TV",
        "WiFi",
        "lake and mountains nearby",
        "fireplace"
      ],
      "sleepingDetails": {
        "maxCapacity": 10,
        "amountOfBeds": 6
      },
      "checkInHour": "12pm",
      "checkOutHour": "10am",
      "distanceFromCityCenterInKM": 9,
      "contactDetails": {
        "phone": "(926) 218-0999",
        "email": "Rowan_Gerlach20@hotmail.com"
      }
    },
    {
      "id": 9,
      "location": {
        "postalCode": "40304-7752",
        "name": "Lake Dorothyworth"
      },
      "pricePerNightInEUR": 16.35,
      "rating": 4.7,
      "capacity": 2,
      "name": "once help",
      "albumId": 137,
      "venueId": 9,
      "numberOfReviews": 399,
      "description": "Vix caterva inventore deficio. Itaque sonitus sordeo vado ager sono fugiat alius id deputo. Agnitio animus vicissitudo adamo.",
      "features": [
        "hypoallergenic bedding",
        "WiFi",
        "speakers",
        "lake and mountains nearby",
        "kitchen facilities",
        "TV",
        "bathroom facilities",
        "parking",
        "pet friendly"
      ],
      "sleepingDetails": {
        "maxCapacity": 6,
        "amountOfBeds": 4
      },
      "checkInHour": "12pm",
      "checkOutHour": "10am",
      "distanceFromCityCenterInKM": 1,
      "contactDetails": {
        "phone": "(743) 682-2633 x7832",
        "email": "Ahmed_Dibbert@hotmail.com"
      }
    },
    {
      "id": 10,
      "location": {
        "postalCode": "64845",
        "name": "Marquardtfort"
      },
      "pricePerNightInEUR": 67.8,
      "rating": 3.6,
      "capacity": 7,
      "name": "gripper apprehensive",
      "albumId": 100,
      "venueId": 10,
      "numberOfReviews": 295,
      "description": "Amissio depulso deorsum. Socius cruentus thesis necessitatibus. Decor cribro ater repellat tamen.",
      "features": [
        "bathroom facilities",
        "fireplace",
        "hypoallergenic bedding",
        "pet friendly",
        "speakers",
        "TV"
      ],
      "sleepingDetails": {
        "maxCapacity": 9,
        "amountOfBeds": 4
      },
      "checkInHour": "12pm",
      "checkOutHour": "10am",
      "distanceFromCityCenterInKM": 12,
      "contactDetails": {
        "phone": "385.896.5541 x4484",
        "email": "Quincy69@gmail.com"
      }
    },
    {
      "id": 11,
      "location": {
        "postalCode": "28306-6861",
        "name": "Vallejo"
      },
      "pricePerNightInEUR": 142.77,
      "rating": 4.3,
      "capacity": 5,
      "name": "all hence",
      "albumId": 218,
      "venueId": 11,
      "numberOfReviews": 412,
      "description": "Deprimo tutis totus vomito dedecor antiquus suscipit. Mollitia collum beatae suspendo. Solvo cado cognomen cohaero arbustum denuo decens tui.",
      "features": [
        "kitchen facilities",
        "lake and mountains nearby",
        "fireplace",
        "bathroom facilities",
        "speakers",
        "TV"
      ],
      "sleepingDetails": {
        "maxCapacity": 8,
        "amountOfBeds": 2
      },
      "checkInHour": "12pm",
      "checkOutHour": "10am",
      "distanceFromCityCenterInKM": 14,
      "contactDetails": {
        "phone": "923-240-4506",
        "email": "Angie_Stoltenberg56@hotmail.com"
      }
    },
    {
      "id": 12,
      "location": {
        "postalCode": "82118-1702",
        "name": "North Will"
      },
      "pricePerNightInEUR": 10,
      "rating": 3.1,
      "capacity": 4,
      "name": "onto qualified",
      "albumId": 64,
      "venueId": 12,
      "numberOfReviews": 219,
      "description": "Thymbra iusto arguo cultura aurum tyrannus aperio chirographum synagoga. Carcer ocer bis coruscus contigo acer statua depulso. Cerno adduco creta eligendi.",
      "features": [
        "parking",
        "hypoallergenic bedding",
        "fireplace",
        "speakers",
        "lake and mountains nearby",
        "pet friendly",
        "TV",
        "kitchen facilities"
      ],
      "sleepingDetails": {
        "maxCapacity": 6,
        "amountOfBeds": 6
      },
      "checkInHour": "12pm",
      "checkOutHour": "10am",
      "distanceFromCityCenterInKM": 7,
      "contactDetails": {
        "phone": "797.682.7043 x16566",
        "email": "Jonathon98@gmail.com"
      }
    },
    {
      "id": 13,
      "location": {
        "postalCode": "12732-8424",
        "name": "East Lansing"
      },
      "pricePerNightInEUR": 74.71,
      "rating": 4.6,
      "capacity": 2,
      "name": "whether asset",
      "albumId": 171,
      "venueId": 13,
      "numberOfReviews": 424,
      "description": "Alo vir campana cognomen paens. Beatus aut civitas decumbo infit. Comparo thalassinus abstergo tutamen casso coruscus votum arbitro chirographum usus.",
      "features": [
        "parking",
        "hypoallergenic bedding",
        "TV",
        "bathroom facilities",
        "lake and mountains nearby"
      ],
      "sleepingDetails": {
        "maxCapacity": 4,
        "amountOfBeds": 2
      },
      "checkInHour": "12pm",
      "checkOutHour": "10am",
      "distanceFromCityCenterInKM": 11,
      "contactDetails": {
        "phone": "835.284.7330 x223",
        "email": "Stella_Lebsack@hotmail.com"
      }
    },
    {
      "id": 14,
      "location": {
        "postalCode": "08079",
        "name": "Hesterfort"
      },
      "pricePerNightInEUR": 36.11,
      "rating": 3.6,
      "capacity": 7,
      "name": "unlike provided",
      "albumId": 480,
      "venueId": 14,
      "numberOfReviews": 320,
      "description": "Tripudio voluptates certus beneficium triumphus assentator quia odio accedo. Aeneus arbitro ventosus absens adaugeo urbs valetudo decor autus arbor. Terebro aggero porro.",
      "features": [
        "bathroom facilities",
        "speakers",
        "lake and mountains nearby",
        "parking",
        "pet friendly",
        "TV",
        "WiFi",
        "fireplace",
        "hypoallergenic bedding",
        "kitchen facilities"
      ],
      "sleepingDetails": {
        "maxCapacity": 10,
        "amountOfBeds": 3
      },
      "checkInHour": "12pm",
      "checkOutHour": "10am",
      "distanceFromCityCenterInKM": 5,
      "contactDetails": {
        "phone": "1-240-881-4060 x9805",
        "email": "Roma91@hotmail.com"
      }
    },
    {
      "id": 15,
      "location": {
        "postalCode": "41664-9145",
        "name": "South Pansy"
      },
      "pricePerNightInEUR": 179.22,
      "rating": 4.3,
      "capacity": 5,
      "name": "daintily ack",
      "albumId": 403,
      "venueId": 15,
      "numberOfReviews": 160,
      "description": "Angelus alioqui possimus tam adsuesco complectus adsuesco thermae. Corporis custodia cubicularis strues terminatio acervus cena inventore defungo summopere. Delectatio somnus temperantia aspicio alius illo correptius ago ater sunt.",
      "features": [
        "bathroom facilities",
        "lake and mountains nearby",
        "parking",
        "speakers",
        "WiFi",
        "hypoallergenic bedding"
      ],
      "sleepingDetails": {
        "maxCapacity": 8,
        "amountOfBeds": 4
      },
      "checkInHour": "12pm",
      "checkOutHour": "10am",
      "distanceFromCityCenterInKM": 10,
      "contactDetails": {
        "phone": "1-280-368-1589",
        "email": "Curtis_Willms15@hotmail.com"
      }
    },
    {
      "id": 16,
      "location": {
        "postalCode": "04518",
        "name": "Katelynnchester"
      },
      "pricePerNightInEUR": 194.56,
      "rating": 3.9,
      "capacity": 5,
      "name": "hippodrome hence",
      "albumId": 185,
      "venueId": 16,
      "numberOfReviews": 155,
      "description": "Bene tersus tibi sublime summa absens alo tredecim. Volaticus eius taedium vacuus iste defluo ullus tergum impedit vulariter. Tergeo cogo conicio molestiae cum desidero cum bellicus comminor creber.",
      "features": [
        "lake and mountains nearby",
        "TV",
        "pet friendly",
        "speakers",
        "kitchen facilities",
        "WiFi",
        "fireplace",
        "parking"
      ],
      "sleepingDetails": {
        "maxCapacity": 9,
        "amountOfBeds": 2
      },
      "checkInHour": "12pm",
      "checkOutHour": "10am",
      "distanceFromCityCenterInKM": 10,
      "contactDetails": {
        "phone": "972-625-0850 x361",
        "email": "Rosendo65@gmail.com"
      }
    },
    {
      "id": 17,
      "location": {
        "postalCode": "77953-7516",
        "name": "Lake Talon"
      },
      "pricePerNightInEUR": 144.79,
      "rating": 3.9,
      "capacity": 4,
      "name": "at seldom",
      "albumId": 6,
      "venueId": 17,
      "numberOfReviews": 192,
      "description": "Abduco angustus una. Necessitatibus beatae paens comprehendo fuga. Facilis utroque vomito absque.",
      "features": [
        "fireplace",
        "WiFi",
        "kitchen facilities",
        "TV",
        "speakers",
        "lake and mountains nearby",
        "bathroom facilities",
        "parking",
        "hypoallergenic bedding"
      ],
      "sleepingDetails": {
        "maxCapacity": 7,
        "amountOfBeds": 5
      },
      "checkInHour": "12pm",
      "checkOutHour": "10am",
      "distanceFromCityCenterInKM": 5,
      "contactDetails": {
        "phone": "854-506-9222 x355",
        "email": "Victor.Frami@yahoo.com"
      }
    },
    {
      "id": 18,
      "location": {
        "postalCode": "13341-0164",
        "name": "Jonathanmouth"
      },
      "pricePerNightInEUR": 111.66,
      "rating": 3.6,
      "capacity": 7,
      "name": "fooey desk",
      "albumId": 442,
      "venueId": 18,
      "numberOfReviews": 405,
      "description": "Aduro recusandae carcer aureus substantia aliquid odio auxilium. Crebro tenuis amaritudo caveo. Patruus ver deserunt derideo.",
      "features": [
        "speakers",
        "kitchen facilities",
        "pet friendly",
        "lake and mountains nearby",
        "parking"
      ],
      "sleepingDetails": {
        "maxCapacity": 10,
        "amountOfBeds": 4
      },
      "checkInHour": "12pm",
      "checkOutHour": "10am",
      "distanceFromCityCenterInKM": 7,
      "contactDetails": {
        "phone": "1-376-666-0650 x696",
        "email": "Kiera.Emmerich39@hotmail.com"
      }
    },
    {
      "id": 19,
      "location": {
        "postalCode": "55492",
        "name": "Port Jamarcus"
      },
      "pricePerNightInEUR": 79.47,
      "rating": 3.7,
      "capacity": 9,
      "name": "which times",
      "albumId": 359,
      "venueId": 19,
      "numberOfReviews": 222,
      "description": "Cohaero succurro debitis decipio. Aduro adopto sub autus. Qui stabilis virga.",
      "features": [
        "parking",
        "WiFi",
        "bathroom facilities",
        "lake and mountains nearby",
        "speakers"
      ],
      "sleepingDetails": {
        "maxCapacity": 12,
        "amountOfBeds": 5
      },
      "checkInHour": "12pm",
      "checkOutHour": "10am",
      "distanceFromCityCenterInKM": 10,
      "contactDetails": {
        "phone": "(515) 881-9762 x74423",
        "email": "Braden22@gmail.com"
      }
    },
    {
      "id": 20,
      "location": {
        "postalCode": "76816-5564",
        "name": "Fort Huldaville"
      },
      "pricePerNightInEUR": 177.46,
      "rating": 3.5,
      "capacity": 5,
      "name": "circa and",
      "albumId": 36,
      "venueId": 20,
      "numberOfReviews": 97,
      "description": "Bos sol delinquo villa cimentarius adiuvo centum. Averto consequatur abeo triumphus conor officiis cotidie numquam compello. Aestas contigo alioqui considero.",
      "features": [
        "kitchen facilities",
        "lake and mountains nearby",
        "parking",
        "TV",
        "pet friendly"
      ],
      "sleepingDetails": {
        "maxCapacity": 9,
        "amountOfBeds": 5
      },
      "checkInHour": "12pm",
      "checkOutHour": "10am",
      "distanceFromCityCenterInKM": 15,
      "contactDetails": {
        "phone": "953-637-6977 x04328",
        "email": "Carolyn.Moen-Kiehn@hotmail.com"
      }
    },
    {
      "id": 21,
      "location": {
        "postalCode": "70541",
        "name": "Beiershire"
      },
      "pricePerNightInEUR": 101.87,
      "rating": 3,
      "capacity": 4,
      "name": "gadzooks satirise",
      "albumId": 266,
      "venueId": 21,
      "numberOfReviews": 92,
      "description": "Hic aiunt thermae hic rem. Temptatio vestrum pecco abbas adipiscor terror terreo adulatio. Vulnus defendo suus viridis umquam capto.",
      "features": [
        "lake and mountains nearby",
        "fireplace",
        "hypoallergenic bedding",
        "WiFi",
        "bathroom facilities",
        "pet friendly",
        "kitchen facilities"
      ],
      "sleepingDetails": {
        "maxCapacity": 6,
        "amountOfBeds": 4
      },
      "checkInHour": "12pm",
      "checkOutHour": "10am",
      "distanceFromCityCenterInKM": 11,
      "contactDetails": {
        "phone": "(504) 845-5307 x8538",
        "email": "Braxton67@yahoo.com"
      }
    },
    {
      "id": 22,
      "location": {
        "postalCode": "31527",
        "name": "Mission Viejo"
      },
      "pricePerNightInEUR": 168.33,
      "rating": 3.5,
      "capacity": 10,
      "name": "sniff in",
      "albumId": 14,
      "venueId": 22,
      "numberOfReviews": 226,
      "description": "Tenuis cumque aveho coepi. Addo accendo verbera. Cupressus cunae laboriosam mollitia.",
      "features": [
        "hypoallergenic bedding",
        "bathroom facilities",
        "fireplace",
        "speakers",
        "pet friendly",
        "lake and mountains nearby",
        "kitchen facilities",
        "WiFi",
        "parking",
        "TV"
      ],
      "sleepingDetails": {
        "maxCapacity": 13,
        "amountOfBeds": 4
      },
      "checkInHour": "12pm",
      "checkOutHour": "10am",
      "distanceFromCityCenterInKM": 9,
      "contactDetails": {
        "phone": "821-447-2824 x711",
        "email": "Haven_Nader@yahoo.com"
      }
    },
    {
      "id": 23,
      "location": {
        "postalCode": "21870",
        "name": "Attleboro"
      },
      "pricePerNightInEUR": 152.36,
      "rating": 4.9,
      "capacity": 9,
      "name": "destock before",
      "albumId": 260,
      "venueId": 23,
      "numberOfReviews": 78,
      "description": "Vir tutis corrigo earum deinde viridis. Depromo ultio bellum venia tabgo tempore. Strues cubitum coadunatio compono molestiae autem curiositas blandior.",
      "features": [
        "hypoallergenic bedding",
        "WiFi",
        "TV",
        "kitchen facilities",
        "parking",
        "pet friendly"
      ],
      "sleepingDetails": {
        "maxCapacity": 12,
        "amountOfBeds": 5
      },
      "checkInHour": "12pm",
      "checkOutHour": "10am",
      "distanceFromCityCenterInKM": 13,
      "contactDetails": {
        "phone": "717.698.8797 x469",
        "email": "Violette_Krajcik9@gmail.com"
      }
    },
    {
      "id": 24,
      "location": {
        "postalCode": "48536-3873",
        "name": "Lake Milesfurt"
      },
      "pricePerNightInEUR": 185.5,
      "rating": 3.7,
      "capacity": 5,
      "name": "other dimly",
      "albumId": 408,
      "venueId": 24,
      "numberOfReviews": 221,
      "description": "Debitis adaugeo benigne. Vitium decerno celo coma vita beatae calco theatrum. Summa callide omnis amicitia ara vitiosus arcus.",
      "features": [
        "pet friendly",
        "bathroom facilities",
        "kitchen facilities",
        "WiFi",
        "TV",
        "lake and mountains nearby",
        "speakers",
        "parking"
      ],
      "sleepingDetails": {
        "maxCapacity": 9,
        "amountOfBeds": 6
      },
      "checkInHour": "12pm",
      "checkOutHour": "10am",
      "distanceFromCityCenterInKM": 7,
      "contactDetails": {
        "phone": "391.671.4525",
        "email": "Loma_Quigley73@yahoo.com"
      }
    },
    {
      "id": 25,
      "location": {
        "postalCode": "33899-4372",
        "name": "Handland"
      },
      "pricePerNightInEUR": 115.41,
      "rating": 4.7,
      "capacity": 7,
      "name": "tomorrow and",
      "albumId": 182,
      "venueId": 25,
      "numberOfReviews": 356,
      "description": "Vorago tener urbs. Solvo demo vilitas aeneus. Velit vulgus facilis crux admiratio correptius casus voro decimus.",
      "features": [
        "lake and mountains nearby",
        "WiFi",
        "fireplace",
        "hypoallergenic bedding",
        "kitchen facilities",
        "pet friendly",
        "TV",
        "bathroom facilities"
      ],
      "sleepingDetails": {
        "maxCapacity": 10,
        "amountOfBeds": 3
      },
      "checkInHour": "12pm",
      "checkOutHour": "10am",
      "distanceFromCityCenterInKM": 7,
      "contactDetails": {
        "phone": "1-346-343-0256 x608",
        "email": "Reta68@gmail.com"
      }
    },
    {
      "id": 26,
      "location": {
        "postalCode": "63892",
        "name": "Watsicamouth"
      },
      "pricePerNightInEUR": 21.18,
      "rating": 4.9,
      "capacity": 6,
      "name": "foolishly schnitzel",
      "albumId": 367,
      "venueId": 26,
      "numberOfReviews": 288,
      "description": "Tego aggredior virga sublime sol universe aliquam. Ullam civis dicta cornu subito quibusdam suffoco. Spero sponte tempore occaecati.",
      "features": [
        "fireplace",
        "bathroom facilities",
        "hypoallergenic bedding",
        "TV",
        "pet friendly",
        "speakers",
        "lake and mountains nearby",
        "WiFi",
        "kitchen facilities"
      ],
      "sleepingDetails": {
        "maxCapacity": 8,
        "amountOfBeds": 3
      },
      "checkInHour": "12pm",
      "checkOutHour": "10am",
      "distanceFromCityCenterInKM": 12,
      "contactDetails": {
        "phone": "1-403-710-0053 x31669",
        "email": "Kiley.Gleichner91@gmail.com"
      }
    },
    {
      "id": 27,
      "location": {
        "postalCode": "31923",
        "name": "South Carter"
      },
      "pricePerNightInEUR": 15.48,
      "rating": 3.7,
      "capacity": 10,
      "name": "incidentally gosh",
      "albumId": 483,
      "venueId": 27,
      "numberOfReviews": 184,
      "description": "Succurro sit deduco curto. Animi utique animus capitulus coepi textilis cibo. Venustas tenax succedo adflicto tepidus verbera tergiversatio.",
      "features": [
        "TV",
        "speakers",
        "hypoallergenic bedding",
        "fireplace",
        "bathroom facilities",
        "lake and mountains nearby",
        "kitchen facilities",
        "WiFi",
        "pet friendly"
      ],
      "sleepingDetails": {
        "maxCapacity": 12,
        "amountOfBeds": 6
      },
      "checkInHour": "12pm",
      "checkOutHour": "10am",
      "distanceFromCityCenterInKM": 1,
      "contactDetails": {
        "phone": "959.627.4548 x229",
        "email": "Tara.Kuhic46@yahoo.com"
      }
    },
    {
      "id": 28,
      "location": {
        "postalCode": "37709-3954",
        "name": "New Lizeth"
      },
      "pricePerNightInEUR": 105.98,
      "rating": 3.8,
      "capacity": 9,
      "name": "arcade what",
      "albumId": 24,
      "venueId": 28,
      "numberOfReviews": 35,
      "description": "Pecus itaque patior aliqua colo. Vehemens est baiulus vivo. Avarus vivo depromo.",
      "features": [
        "speakers",
        "hypoallergenic bedding",
        "parking",
        "TV",
        "lake and mountains nearby"
      ],
      "sleepingDetails": {
        "maxCapacity": 12,
        "amountOfBeds": 4
      },
      "checkInHour": "12pm",
      "checkOutHour": "10am",
      "distanceFromCityCenterInKM": 5,
      "contactDetails": {
        "phone": "(893) 355-9782 x9124",
        "email": "Gaetano_Spinka92@yahoo.com"
      }
    },
    {
      "id": 29,
      "location": {
        "postalCode": "05542",
        "name": "St. Clair Shores"
      },
      "pricePerNightInEUR": 68.13,
      "rating": 4,
      "capacity": 9,
      "name": "anxiously meanwhile",
      "albumId": 277,
      "venueId": 29,
      "numberOfReviews": 439,
      "description": "Caries vester teres a cupressus coruscus deprimo. Vereor vulariter non cilicium sordeo curto aiunt desidero contabesco officiis. Convoco ventito adinventitias virga socius vita spes tero.",
      "features": [
        "WiFi",
        "speakers",
        "bathroom facilities",
        "pet friendly",
        "TV",
        "kitchen facilities",
        "fireplace",
        "hypoallergenic bedding",
        "parking"
      ],
      "sleepingDetails": {
        "maxCapacity": 13,
        "amountOfBeds": 4
      },
      "checkInHour": "12pm",
      "checkOutHour": "10am",
      "distanceFromCityCenterInKM": 12,
      "contactDetails": {
        "phone": "1-346-641-6729 x591",
        "email": "Antone73@hotmail.com"
      }
    },
    {
      "id": 30,
      "location": {
        "postalCode": "44003-0862",
        "name": "North Glendastad"
      },
      "pricePerNightInEUR": 156.31,
      "rating": 4.8,
      "capacity": 9,
      "name": "fall but",
      "albumId": 200,
      "venueId": 30,
      "numberOfReviews": 222,
      "description": "Celo aliquam aggero curo. Cupio agnosco volaticus. Torrens cavus baiulus umbra patria.",
      "features": [
        "TV",
        "kitchen facilities",
        "speakers",
        "hypoallergenic bedding",
        "lake and mountains nearby",
        "fireplace"
      ],
      "sleepingDetails": {
        "maxCapacity": 13,
        "amountOfBeds": 2
      },
      "checkInHour": "12pm",
      "checkOutHour": "10am",
      "distanceFromCityCenterInKM": 15,
      "contactDetails": {
        "phone": "593.432.2881 x98560",
        "email": "Dudley_Nitzsche@yahoo.com"
      }
    },
    {
      "id": 31,
      "location": {
        "postalCode": "84034",
        "name": "Smithberg"
      },
      "pricePerNightInEUR": 187.34,
      "rating": 4.5,
      "capacity": 3,
      "name": "eek when",
      "albumId": 424,
      "venueId": 31,
      "numberOfReviews": 414,
      "description": "Calamitas sperno trans accusator veritas impedit somnus. Vinco thymbra thorax vos uxor adnuo cotidie thermae iste. Cibo laudantium vesco patria sodalitas laborum.",
      "features": [
        "lake and mountains nearby",
        "TV",
        "speakers",
        "parking",
        "fireplace",
        "kitchen facilities"
      ],
      "sleepingDetails": {
        "maxCapacity": 7,
        "amountOfBeds": 4
      },
      "checkInHour": "12pm",
      "checkOutHour": "10am",
      "distanceFromCityCenterInKM": 5,
      "contactDetails": {
        "phone": "1-638-326-4765 x315",
        "email": "Sofia.Satterfield@yahoo.com"
      }
    },
    {
      "id": 32,
      "location": {
        "postalCode": "04401",
        "name": "East Lavinastead"
      },
      "pricePerNightInEUR": 72.92,
      "rating": 3.1,
      "capacity": 7,
      "name": "alarmed or",
      "albumId": 169,
      "venueId": 32,
      "numberOfReviews": 285,
      "description": "Theatrum tam commodi cupiditate aureus amita adduco ea clibanus. Animadverto adaugeo corrupti. Sollicito confero tui somniculosus conforto dolorem spectaculum animadverto.",
      "features": [
        "hypoallergenic bedding",
        "lake and mountains nearby",
        "kitchen facilities",
        "parking",
        "WiFi",
        "TV",
        "pet friendly",
        "bathroom facilities",
        "speakers"
      ],
      "sleepingDetails": {
        "maxCapacity": 11,
        "amountOfBeds": 5
      },
      "checkInHour": "12pm",
      "checkOutHour": "10am",
      "distanceFromCityCenterInKM": 10,
      "contactDetails": {
        "phone": "895-837-1043 x04302",
        "email": "Verona73@hotmail.com"
      }
    },
    {
      "id": 33,
      "location": {
        "postalCode": "21974-5176",
        "name": "Lake Westley"
      },
      "pricePerNightInEUR": 92.62,
      "rating": 4.7,
      "capacity": 7,
      "name": "gah whether",
      "albumId": 80,
      "venueId": 33,
      "numberOfReviews": 159,
      "description": "Subiungo demoror suppellex caelum. Turba tergiversatio damnatio rerum. Argentum deleo tantum suadeo cervus quas corrigo.",
      "features": [
        "hypoallergenic bedding",
        "fireplace",
        "WiFi",
        "pet friendly",
        "speakers",
        "lake and mountains nearby",
        "bathroom facilities",
        "kitchen facilities",
        "TV"
      ],
      "sleepingDetails": {
        "maxCapacity": 10,
        "amountOfBeds": 4
      },
      "checkInHour": "12pm",
      "checkOutHour": "10am",
      "distanceFromCityCenterInKM": 4,
      "contactDetails": {
        "phone": "403.798.4401 x050",
        "email": "Kaya86@gmail.com"
      }
    },
    {
      "id": 34,
      "location": {
        "postalCode": "25638",
        "name": "Tillmanfurt"
      },
      "pricePerNightInEUR": 183.14,
      "rating": 4.5,
      "capacity": 9,
      "name": "notwithstanding ew",
      "albumId": 327,
      "venueId": 34,
      "numberOfReviews": 477,
      "description": "Volva somniculosus denego. Tantillus magnam deprimo assentator tyrannus laudantium aiunt adimpleo. Vita tam cernuus terga reprehenderit creptio considero est.",
      "features": [
        "lake and mountains nearby",
        "pet friendly",
        "kitchen facilities",
        "parking",
        "fireplace",
        "TV",
        "speakers"
      ],
      "sleepingDetails": {
        "maxCapacity": 12,
        "amountOfBeds": 4
      },
      "checkInHour": "12pm",
      "checkOutHour": "10am",
      "distanceFromCityCenterInKM": 3,
      "contactDetails": {
        "phone": "(508) 411-8825 x9426",
        "email": "Karley_OKeefe22@hotmail.com"
      }
    },
    {
      "id": 35,
      "location": {
        "postalCode": "44876-5716",
        "name": "Fort Duanefort"
      },
      "pricePerNightInEUR": 158.1,
      "rating": 4.2,
      "capacity": 3,
      "name": "fooey any",
      "albumId": 431,
      "venueId": 35,
      "numberOfReviews": 403,
      "description": "Commodi omnis crebro sopor crustulum ager tunc. Vita eaque adeo caries casus tunc hic aro dedecor veritatis. Thesis deleniti casus auctor.",
      "features": [
        "fireplace",
        "parking",
        "lake and mountains nearby",
        "bathroom facilities",
        "WiFi",
        "TV",
        "hypoallergenic bedding"
      ],
      "sleepingDetails": {
        "maxCapacity": 7,
        "amountOfBeds": 6
      },
      "checkInHour": "12pm",
      "checkOutHour": "10am",
      "distanceFromCityCenterInKM": 8,
      "contactDetails": {
        "phone": "(931) 461-3968",
        "email": "Ricardo.OKon53@hotmail.com"
      }
    },
    {
      "id": 36,
      "location": {
        "postalCode": "82987-4489",
        "name": "East Cruzboro"
      },
      "pricePerNightInEUR": 143.65,
      "rating": 4.7,
      "capacity": 8,
      "name": "likewise phooey",
      "albumId": 485,
      "venueId": 36,
      "numberOfReviews": 334,
      "description": "Adicio reiciendis apud reiciendis. Agnosco summopere abstergo colo cuppedia asperiores. Nesciunt vilitas perspiciatis possimus texo conduco cito cervus eaque.",
      "features": [
        "speakers",
        "parking",
        "WiFi",
        "bathroom facilities",
        "lake and mountains nearby",
        "pet friendly",
        "hypoallergenic bedding",
        "kitchen facilities",
        "fireplace"
      ],
      "sleepingDetails": {
        "maxCapacity": 12,
        "amountOfBeds": 2
      },
      "checkInHour": "12pm",
      "checkOutHour": "10am",
      "distanceFromCityCenterInKM": 10,
      "contactDetails": {
        "phone": "1-605-693-0018",
        "email": "Sandrine24@hotmail.com"
      }
    },
    {
      "id": 37,
      "location": {
        "postalCode": "27973",
        "name": "Reichelton"
      },
      "pricePerNightInEUR": 94.31,
      "rating": 4.4,
      "capacity": 7,
      "name": "fencing boohoo",
      "albumId": 175,
      "venueId": 37,
      "numberOfReviews": 203,
      "description": "Cinis culpo videlicet ab decor ceno spes denuo appositus. Videlicet accedo clamo conicio vigilo. Spiculum aureus absum.",
      "features": [
        "speakers",
        "bathroom facilities",
        "WiFi",
        "pet friendly",
        "TV",
        "fireplace",
        "kitchen facilities"
      ],
      "sleepingDetails": {
        "maxCapacity": 9,
        "amountOfBeds": 5
      },
      "checkInHour": "12pm",
      "checkOutHour": "10am",
      "distanceFromCityCenterInKM": 13,
      "contactDetails": {
        "phone": "480.646.5970 x79987",
        "email": "Myra.Grady@gmail.com"
      }
    },
    {
      "id": 38,
      "location": {
        "postalCode": "24133",
        "name": "Marysville"
      },
      "pricePerNightInEUR": 56.99,
      "rating": 4.8,
      "capacity": 5,
      "name": "onto murky",
      "albumId": 361,
      "venueId": 38,
      "numberOfReviews": 111,
      "description": "Absum suffoco vinco amicitia amplus magnam at deludo versus demum. Consequatur suppellex ascisco cupio comminor vespillo odio contra aegrotatio strues. Cui quod comes officia vitae absconditus.",
      "features": [
        "pet friendly",
        "fireplace",
        "TV",
        "hypoallergenic bedding",
        "lake and mountains nearby",
        "bathroom facilities"
      ],
      "sleepingDetails": {
        "maxCapacity": 8,
        "amountOfBeds": 4
      },
      "checkInHour": "12pm",
      "checkOutHour": "10am",
      "distanceFromCityCenterInKM": 10,
      "contactDetails": {
        "phone": "(909) 918-3481",
        "email": "Gregory_Stanton45@hotmail.com"
      }
    },
    {
      "id": 39,
      "location": {
        "postalCode": "42814-5925",
        "name": "Shainaview"
      },
      "pricePerNightInEUR": 123.5,
      "rating": 4.5,
      "capacity": 9,
      "name": "rosemary overconfidently",
      "albumId": 170,
      "venueId": 39,
      "numberOfReviews": 327,
      "description": "Adsuesco concedo pecus. Antepono utpote abeo beneficium eveniet ambulo acerbitas. Culpa agnitio allatus.",
      "features": [
        "WiFi",
        "lake and mountains nearby",
        "speakers",
        "fireplace",
        "hypoallergenic bedding",
        "parking",
        "kitchen facilities",
        "bathroom facilities",
        "pet friendly",
        "TV"
      ],
      "sleepingDetails": {
        "maxCapacity": 12,
        "amountOfBeds": 2
      },
      "checkInHour": "12pm",
      "checkOutHour": "10am",
      "distanceFromCityCenterInKM": 10,
      "contactDetails": {
        "phone": "(419) 203-9450",
        "email": "Rylan_McCullough@yahoo.com"
      }
    },
    {
      "id": 40,
      "location": {
        "postalCode": "41206-7611",
        "name": "Hughfield"
      },
      "pricePerNightInEUR": 23.7,
      "rating": 3.8,
      "capacity": 2,
      "name": "syringe farm",
      "albumId": 103,
      "venueId": 40,
      "numberOfReviews": 263,
      "description": "Impedit vir necessitatibus tardus. Tabula aeger arbustum adsuesco cattus cattus versus. Iure conculco terebro adsum acceptus terminatio creator vulpes.",
      "features": [
        "kitchen facilities",
        "fireplace",
        "pet friendly",
        "WiFi",
        "speakers"
      ],
      "sleepingDetails": {
        "maxCapacity": 4,
        "amountOfBeds": 6
      },
      "checkInHour": "12pm",
      "checkOutHour": "10am",
      "distanceFromCityCenterInKM": 9,
      "contactDetails": {
        "phone": "(613) 654-4349 x6400",
        "email": "Frieda_Bayer96@hotmail.com"
      }
    },
    {
      "id": 41,
      "location": {
        "postalCode": "79107",
        "name": "North Addie"
      },
      "pricePerNightInEUR": 21.05,
      "rating": 3.8,
      "capacity": 3,
      "name": "round under",
      "albumId": 60,
      "venueId": 41,
      "numberOfReviews": 111,
      "description": "Cavus damnatio alias conduco conatus caute clibanus asperiores abbas. Appono creptio velut aperiam vetus coerceo apto dapifer acies blandior. Adstringo cursim acsi voluptatem conicio adeo ait.",
      "features": [
        "parking",
        "WiFi",
        "fireplace",
        "kitchen facilities",
        "lake and mountains nearby"
      ],
      "sleepingDetails": {
        "maxCapacity": 6,
        "amountOfBeds": 2
      },
      "checkInHour": "12pm",
      "checkOutHour": "10am",
      "distanceFromCityCenterInKM": 13,
      "contactDetails": {
        "phone": "1-310-257-0540 x23877",
        "email": "Richard_Friesen@hotmail.com"
      }
    },
    {
      "id": 42,
      "location": {
        "postalCode": "26677",
        "name": "Franeyland"
      },
      "pricePerNightInEUR": 149.14,
      "rating": 3.2,
      "capacity": 7,
      "name": "searchingly instead",
      "albumId": 357,
      "venueId": 42,
      "numberOfReviews": 311,
      "description": "Derideo spectaculum compono sumptus asperiores vox laborum ulterius ulterius. In curso vorago aliquid truculenter inflammatio. Cenaculum cupio candidus curia voluptatem occaecati armarium eveniet arto.",
      "features": [
        "TV",
        "lake and mountains nearby",
        "WiFi",
        "parking",
        "hypoallergenic bedding",
        "bathroom facilities",
        "fireplace",
        "kitchen facilities"
      ],
      "sleepingDetails": {
        "maxCapacity": 11,
        "amountOfBeds": 5
      },
      "checkInHour": "12pm",
      "checkOutHour": "10am",
      "distanceFromCityCenterInKM": 1,
      "contactDetails": {
        "phone": "1-822-767-1150 x204",
        "email": "Sandra6@gmail.com"
      }
    },
    {
      "id": 43,
      "location": {
        "postalCode": "50735-0268",
        "name": "West Erickastead"
      },
      "pricePerNightInEUR": 192.37,
      "rating": 5,
      "capacity": 5,
      "name": "wobbly among",
      "albumId": 472,
      "venueId": 43,
      "numberOfReviews": 415,
      "description": "Supplanto amaritudo repellat statim praesentium thorax templum. Suffragium cariosus barba amplexus patrocinor subiungo. Velut conturbo torqueo facere vere cupiditas.",
      "features": [
        "lake and mountains nearby",
        "bathroom facilities",
        "pet friendly",
        "hypoallergenic bedding",
        "parking"
      ],
      "sleepingDetails": {
        "maxCapacity": 7,
        "amountOfBeds": 6
      },
      "checkInHour": "12pm",
      "checkOutHour": "10am",
      "distanceFromCityCenterInKM": 7,
      "contactDetails": {
        "phone": "390-566-1709 x6421",
        "email": "Kailey.Ullrich@yahoo.com"
      }
    },
    {
      "id": 44,
      "location": {
        "postalCode": "14617-8835",
        "name": "Veumtown"
      },
      "pricePerNightInEUR": 65.27,
      "rating": 3.1,
      "capacity": 3,
      "name": "since eek",
      "albumId": 273,
      "venueId": 44,
      "numberOfReviews": 428,
      "description": "Uredo cubo callide cattus cultura deleniti accusantium. Arx audeo similique aestus temperantia calcar decimus. Decumbo expedita angustus thesaurus averto recusandae aggero sum chirographum.",
      "features": [
        "pet friendly",
        "fireplace",
        "WiFi",
        "lake and mountains nearby",
        "speakers",
        "kitchen facilities",
        "parking",
        "TV",
        "hypoallergenic bedding",
        "bathroom facilities"
      ],
      "sleepingDetails": {
        "maxCapacity": 7,
        "amountOfBeds": 4
      },
      "checkInHour": "12pm",
      "checkOutHour": "10am",
      "distanceFromCityCenterInKM": 14,
      "contactDetails": {
        "phone": "(323) 228-9817 x324",
        "email": "Delfina_Kiehn@gmail.com"
      }
    },
    {
      "id": 45,
      "location": {
        "postalCode": "70885-6882",
        "name": "Quigleystad"
      },
      "pricePerNightInEUR": 115,
      "rating": 3.3,
      "capacity": 2,
      "name": "menacing repeatedly",
      "albumId": 156,
      "venueId": 45,
      "numberOfReviews": 461,
      "description": "Alter animus eaque voluptatem abundans. Decet tredecim credo auctus aegrus caritas inflammatio possimus. Anser curto deporto abduco laborum custodia theca totam tui defaeco.",
      "features": [
        "kitchen facilities",
        "fireplace",
        "lake and mountains nearby",
        "hypoallergenic bedding",
        "speakers",
        "WiFi",
        "pet friendly"
      ],
      "sleepingDetails": {
        "maxCapacity": 5,
        "amountOfBeds": 2
      },
      "checkInHour": "12pm",
      "checkOutHour": "10am",
      "distanceFromCityCenterInKM": 9,
      "contactDetails": {
        "phone": "790.391.6524",
        "email": "Jovan.Kuhic-Ferry@hotmail.com"
      }
    },
    {
      "id": 46,
      "location": {
        "postalCode": "18377-4314",
        "name": "Sparks"
      },
      "pricePerNightInEUR": 172.77,
      "rating": 3.4,
      "capacity": 10,
      "name": "knowledgeably reference",
      "albumId": 273,
      "venueId": 46,
      "numberOfReviews": 351,
      "description": "Excepturi conqueror creber aestivus ullam stipes curiositas. Decor caelum tener. Accusamus acidus curiositas.",
      "features": [
        "hypoallergenic bedding",
        "fireplace",
        "WiFi",
        "TV",
        "pet friendly",
        "parking"
      ],
      "sleepingDetails": {
        "maxCapacity": 12,
        "amountOfBeds": 3
      },
      "checkInHour": "12pm",
      "checkOutHour": "10am",
      "distanceFromCityCenterInKM": 5,
      "contactDetails": {
        "phone": "352.442.4519 x66831",
        "email": "Allene_Ratke@yahoo.com"
      }
    },
    {
      "id": 47,
      "location": {
        "postalCode": "63408",
        "name": "Yostside"
      },
      "pricePerNightInEUR": 169.51,
      "rating": 4.5,
      "capacity": 4,
      "name": "zowie well-to-do",
      "albumId": 122,
      "venueId": 47,
      "numberOfReviews": 172,
      "description": "Eos tremo corrumpo fugiat aptus. Pauci demonstro voluptates clam volva. Consequatur suus sursum aggredior.",
      "features": [
        "fireplace",
        "WiFi",
        "lake and mountains nearby",
        "parking",
        "TV"
      ],
      "sleepingDetails": {
        "maxCapacity": 8,
        "amountOfBeds": 4
      },
      "checkInHour": "12pm",
      "checkOutHour": "10am",
      "distanceFromCityCenterInKM": 13,
      "contactDetails": {
        "phone": "(612) 599-3397 x5605",
        "email": "Eleonore_Waelchi@yahoo.com"
      }
    },
    {
      "id": 48,
      "location": {
        "postalCode": "37493-0614",
        "name": "North Ashlee"
      },
      "pricePerNightInEUR": 93.79,
      "rating": 4.3,
      "capacity": 2,
      "name": "eulogise than",
      "albumId": 235,
      "venueId": 48,
      "numberOfReviews": 37,
      "description": "Cauda cotidie thymum. Credo capto audentia verto amiculum advoco odit. Apto campana agnosco charisma tego eum.",
      "features": [
        "pet friendly",
        "WiFi",
        "fireplace",
        "bathroom facilities",
        "TV",
        "kitchen facilities",
        "speakers",
        "hypoallergenic bedding"
      ],
      "sleepingDetails": {
        "maxCapacity": 6,
        "amountOfBeds": 2
      },
      "checkInHour": "12pm",
      "checkOutHour": "10am",
      "distanceFromCityCenterInKM": 9,
      "contactDetails": {
        "phone": "(510) 421-3436 x60083",
        "email": "Skyla58@gmail.com"
      }
    },
    {
      "id": 49,
      "location": {
        "postalCode": "86581-6348",
        "name": "Cheektowaga"
      },
      "pricePerNightInEUR": 171.41,
      "rating": 3.8,
      "capacity": 5,
      "name": "miscalculate midst",
      "albumId": 180,
      "venueId": 49,
      "numberOfReviews": 249,
      "description": "Termes creta subnecto dicta stipes. Demens ara aestivus tui consequatur campana voluptatibus. Arx tamquam calco necessitatibus surgo.",
      "features": [
        "hypoallergenic bedding",
        "pet friendly",
        "kitchen facilities",
        "WiFi",
        "lake and mountains nearby"
      ],
      "sleepingDetails": {
        "maxCapacity": 9,
        "amountOfBeds": 4
      },
      "checkInHour": "12pm",
      "checkOutHour": "10am",
      "distanceFromCityCenterInKM": 14,
      "contactDetails": {
        "phone": "1-829-480-6867 x88691",
        "email": "Elvera70@gmail.com"
      }
    },
    {
      "id": 50,
      "location": {
        "postalCode": "99517-4139",
        "name": "Lake Florineberg"
      },
      "pricePerNightInEUR": 138.27,
      "rating": 3.6,
      "capacity": 2,
      "name": "under freely",
      "albumId": 74,
      "venueId": 50,
      "numberOfReviews": 291,
      "description": "Sustineo curis deputo deficio sophismata. Amita arguo reiciendis. Textor baiulus vel vere aequus tenus cavus abstergo cunctatio vere.",
      "features": [
        "lake and mountains nearby",
        "kitchen facilities",
        "TV",
        "fireplace",
        "hypoallergenic bedding"
      ],
      "sleepingDetails": {
        "maxCapacity": 6,
        "amountOfBeds": 2
      },
      "checkInHour": "12pm",
      "checkOutHour": "10am",
      "distanceFromCityCenterInKM": 13,
      "contactDetails": {
        "phone": "387-487-3163 x57957",
        "email": "Keshawn.Shanahan@gmail.com"
      }
    },
    {
      "id": 51,
      "location": {
        "postalCode": "13669",
        "name": "North Ellsworthstad"
      },
      "pricePerNightInEUR": 168.81,
      "rating": 3,
      "capacity": 6,
      "name": "vain easily",
      "albumId": 320,
      "venueId": 51,
      "numberOfReviews": 186,
      "description": "Surgo exercitationem ullus baiulus cometes dolore. Adinventitias coruscus cunae. Quos dolores eligendi amplus congregatio cornu virgo compello.",
      "features": [
        "kitchen facilities",
        "pet friendly",
        "lake and mountains nearby",
        "WiFi",
        "bathroom facilities",
        "speakers",
        "fireplace",
        "parking"
      ],
      "sleepingDetails": {
        "maxCapacity": 8,
        "amountOfBeds": 5
      },
      "checkInHour": "12pm",
      "checkOutHour": "10am",
      "distanceFromCityCenterInKM": 12,
      "contactDetails": {
        "phone": "840-744-9499 x20774",
        "email": "Amy_Prosacco@yahoo.com"
      }
    },
    {
      "id": 52,
      "location": {
        "postalCode": "13791-6461",
        "name": "Hacienda Heights"
      },
      "pricePerNightInEUR": 105.3,
      "rating": 3.6,
      "capacity": 7,
      "name": "emergent blah",
      "albumId": 461,
      "venueId": 52,
      "numberOfReviews": 333,
      "description": "Tribuo autus tempus ascit volva corona annus arcesso omnis. Tamen assumenda cerno capillus subseco suus volva. Adsidue tenuis thymbra culpa undique arcus cunabula.",
      "features": [
        "speakers",
        "lake and mountains nearby",
        "TV",
        "bathroom facilities",
        "WiFi"
      ],
      "sleepingDetails": {
        "maxCapacity": 9,
        "amountOfBeds": 2
      },
      "checkInHour": "12pm",
      "checkOutHour": "10am",
      "distanceFromCityCenterInKM": 3,
      "contactDetails": {
        "phone": "438.523.5972",
        "email": "Vincenzo97@yahoo.com"
      }
    },
    {
      "id": 53,
      "location": {
        "postalCode": "02833-6199",
        "name": "Fort Demondtown"
      },
      "pricePerNightInEUR": 188.74,
      "rating": 3.1,
      "capacity": 3,
      "name": "well-lit unless",
      "albumId": 111,
      "venueId": 53,
      "numberOfReviews": 58,
      "description": "Adiuvo deleniti sodalitas sollicito commemoro clarus suffoco tripudio coniuratio patruus. Volo conventus conduco verus beneficium iste sapiente crux depopulo. Ascisco asper coniuratio nulla autem certus careo.",
      "features": [
        "speakers",
        "kitchen facilities",
        "pet friendly",
        "fireplace",
        "hypoallergenic bedding"
      ],
      "sleepingDetails": {
        "maxCapacity": 7,
        "amountOfBeds": 2
      },
      "checkInHour": "12pm",
      "checkOutHour": "10am",
      "distanceFromCityCenterInKM": 5,
      "contactDetails": {
        "phone": "447-548-8460 x79660",
        "email": "Heath_Russel@gmail.com"
      }
    },
    {
      "id": 54,
      "location": {
        "postalCode": "95855-2349",
        "name": "South Gillian"
      },
      "pricePerNightInEUR": 61.23,
      "rating": 3,
      "capacity": 2,
      "name": "like in",
      "albumId": 274,
      "venueId": 54,
      "numberOfReviews": 304,
      "description": "Aureus cenaculum vilitas allatus torrens arguo. Assentator verus solutio suffoco cervus contra doloremque crux aureus. Degenero compello vinculum aestas.",
      "features": [
        "pet friendly",
        "bathroom facilities",
        "WiFi",
        "TV",
        "parking",
        "fireplace",
        "kitchen facilities",
        "lake and mountains nearby",
        "speakers"
      ],
      "sleepingDetails": {
        "maxCapacity": 5,
        "amountOfBeds": 2
      },
      "checkInHour": "12pm",
      "checkOutHour": "10am",
      "distanceFromCityCenterInKM": 15,
      "contactDetails": {
        "phone": "(703) 463-2649 x366",
        "email": "Joseph.Feil95@yahoo.com"
      }
    },
    {
      "id": 55,
      "location": {
        "postalCode": "15023-0737",
        "name": "Chapel Hill"
      },
      "pricePerNightInEUR": 121.24,
      "rating": 4,
      "capacity": 3,
      "name": "softly tooth",
      "albumId": 440,
      "venueId": 55,
      "numberOfReviews": 73,
      "description": "Similique crudelis patior thema astrum acervus aperio. Quam apostolus colligo assentator suspendo reiciendis. Decimus aegrotatio vox admiratio sui usitas apostolus deserunt qui non.",
      "features": [
        "lake and mountains nearby",
        "TV",
        "WiFi",
        "parking",
        "fireplace",
        "bathroom facilities",
        "speakers",
        "hypoallergenic bedding",
        "pet friendly"
      ],
      "sleepingDetails": {
        "maxCapacity": 6,
        "amountOfBeds": 3
      },
      "checkInHour": "12pm",
      "checkOutHour": "10am",
      "distanceFromCityCenterInKM": 2,
      "contactDetails": {
        "phone": "466-408-2939 x556",
        "email": "Jordi_Cassin@yahoo.com"
      }
    },
    {
      "id": 56,
      "location": {
        "postalCode": "30572-7237",
        "name": "East Jazmin"
      },
      "pricePerNightInEUR": 93.85,
      "rating": 4.1,
      "capacity": 3,
      "name": "why woot",
      "albumId": 380,
      "venueId": 56,
      "numberOfReviews": 355,
      "description": "Claro synagoga utilis sunt decor velit. Strues suggero varius pecto aliquid nihil. Cupiditas aedificium tantillus.",
      "features": [
        "kitchen facilities",
        "WiFi",
        "fireplace",
        "speakers",
        "pet friendly",
        "bathroom facilities",
        "lake and mountains nearby",
        "hypoallergenic bedding"
      ],
      "sleepingDetails": {
        "maxCapacity": 5,
        "amountOfBeds": 5
      },
      "checkInHour": "12pm",
      "checkOutHour": "10am",
      "distanceFromCityCenterInKM": 14,
      "contactDetails": {
        "phone": "1-332-297-4976",
        "email": "Mittie_Durgan@hotmail.com"
      }
    },
    {
      "id": 57,
      "location": {
        "postalCode": "08305-3411",
        "name": "Jacobiland"
      },
      "pricePerNightInEUR": 14.67,
      "rating": 3.5,
      "capacity": 5,
      "name": "chow aw",
      "albumId": 169,
      "venueId": 57,
      "numberOfReviews": 337,
      "description": "Admiratio amaritudo nesciunt comitatus tardus trucido. Earum quae sustineo cognatus avarus. Sub attero copiose aestivus utor tamen.",
      "features": [
        "hypoallergenic bedding",
        "speakers",
        "fireplace",
        "TV",
        "parking",
        "lake and mountains nearby"
      ],
      "sleepingDetails": {
        "maxCapacity": 8,
        "amountOfBeds": 2
      },
      "checkInHour": "12pm",
      "checkOutHour": "10am",
      "distanceFromCityCenterInKM": 1,
      "contactDetails": {
        "phone": "(397) 950-4982",
        "email": "Carmella78@yahoo.com"
      }
    },
    {
      "id": 58,
      "location": {
        "postalCode": "71446",
        "name": "Conncester"
      },
      "pricePerNightInEUR": 168.46,
      "rating": 4.4,
      "capacity": 2,
      "name": "bruised fun",
      "albumId": 258,
      "venueId": 58,
      "numberOfReviews": 79,
      "description": "Vitiosus voluntarius avarus cruentus vomica reprehenderit utilis pauper. Tutamen adflicto aeger curatio cariosus vilicus audio. Nihil illum possimus cohaero supellex terga iste sapiente tempore collum.",
      "features": [
        "fireplace",
        "speakers",
        "WiFi",
        "TV",
        "pet friendly"
      ],
      "sleepingDetails": {
        "maxCapacity": 5,
        "amountOfBeds": 3
      },
      "checkInHour": "12pm",
      "checkOutHour": "10am",
      "distanceFromCityCenterInKM": 15,
      "contactDetails": {
        "phone": "764.627.0986 x619",
        "email": "Monte66@yahoo.com"
      }
    },
    {
      "id": 59,
      "location": {
        "postalCode": "11794",
        "name": "Dustinland"
      },
      "pricePerNightInEUR": 104.14,
      "rating": 4.2,
      "capacity": 2,
      "name": "mean till",
      "albumId": 57,
      "venueId": 59,
      "numberOfReviews": 25,
      "description": "Validus socius tabernus averto vis derideo denego. Creptio tergo conventus vinum termes sollers recusandae molestiae. Crapula caecus sollers viriliter argumentum validus vae.",
      "features": [
        "bathroom facilities",
        "pet friendly",
        "speakers",
        "parking",
        "kitchen facilities",
        "fireplace",
        "TV"
      ],
      "sleepingDetails": {
        "maxCapacity": 4,
        "amountOfBeds": 4
      },
      "checkInHour": "12pm",
      "checkOutHour": "10am",
      "distanceFromCityCenterInKM": 6,
      "contactDetails": {
        "phone": "(939) 830-7558 x4604",
        "email": "Althea_Kunze@gmail.com"
      }
    },
    {
      "id": 60,
      "location": {
        "postalCode": "97342",
        "name": "Damarisfort"
      },
      "pricePerNightInEUR": 13.3,
      "rating": 4.7,
      "capacity": 9,
      "name": "deploy for",
      "albumId": 489,
      "venueId": 60,
      "numberOfReviews": 346,
      "description": "Admoneo placeat sponte. Pecco temperantia repellat perspiciatis bene aequitas. Numquam in canonicus pectus arcus.",
      "features": [
        "bathroom facilities",
        "speakers",
        "WiFi",
        "fireplace",
        "parking",
        "kitchen facilities",
        "lake and mountains nearby"
      ],
      "sleepingDetails": {
        "maxCapacity": 13,
        "amountOfBeds": 6
      },
      "checkInHour": "12pm",
      "checkOutHour": "10am",
      "distanceFromCityCenterInKM": 5,
      "contactDetails": {
        "phone": "1-922-995-8903 x11585",
        "email": "Precious_Stamm71@yahoo.com"
      }
    },
    {
      "id": 61,
      "location": {
        "postalCode": "05542-1658",
        "name": "Stratford"
      },
      "pricePerNightInEUR": 176.43,
      "rating": 3.3,
      "capacity": 3,
      "name": "well-groomed expansion",
      "albumId": 483,
      "venueId": 61,
      "numberOfReviews": 285,
      "description": "Suspendo defetiscor deporto tempora perferendis vesper. Carbo aranea avarus colo via quae atrox tripudio. Tres demitto advenio deleo succurro quibusdam.",
      "features": [
        "TV",
        "hypoallergenic bedding",
        "speakers",
        "kitchen facilities",
        "parking",
        "WiFi",
        "fireplace",
        "lake and mountains nearby",
        "pet friendly"
      ],
      "sleepingDetails": {
        "maxCapacity": 6,
        "amountOfBeds": 6
      },
      "checkInHour": "12pm",
      "checkOutHour": "10am",
      "distanceFromCityCenterInKM": 3,
      "contactDetails": {
        "phone": "539-723-6754",
        "email": "Winnifred52@gmail.com"
      }
    },
    {
      "id": 62,
      "location": {
        "postalCode": "15648-4360",
        "name": "East Coymouth"
      },
      "pricePerNightInEUR": 27.57,
      "rating": 3.2,
      "capacity": 6,
      "name": "unnecessarily promptly",
      "albumId": 291,
      "venueId": 62,
      "numberOfReviews": 25,
      "description": "Ustulo cogito vis aperio. Cimentarius quibusdam vobis barba. Summa alii tollo compello defungo cinis tabella.",
      "features": [
        "bathroom facilities",
        "fireplace",
        "hypoallergenic bedding",
        "speakers",
        "kitchen facilities",
        "parking",
        "TV",
        "pet friendly",
        "lake and mountains nearby"
      ],
      "sleepingDetails": {
        "maxCapacity": 9,
        "amountOfBeds": 5
      },
      "checkInHour": "12pm",
      "checkOutHour": "10am",
      "distanceFromCityCenterInKM": 12,
      "contactDetails": {
        "phone": "453.348.0254",
        "email": "Dan_Kuhn33@hotmail.com"
      }
    },
    {
      "id": 63,
      "location": {
        "postalCode": "00119-6237",
        "name": "Lake Pat"
      },
      "pricePerNightInEUR": 64.54,
      "rating": 3.8,
      "capacity": 9,
      "name": "hmph pace",
      "albumId": 140,
      "venueId": 63,
      "numberOfReviews": 473,
      "description": "Velit defleo ambitus adeptio dedecor tutis cubitum currus. Stultus canis suppellex delicate curso uterque deprimo cursim sollicito. Subvenio ceno accedo.",
      "features": [
        "parking",
        "hypoallergenic bedding",
        "TV",
        "fireplace",
        "bathroom facilities",
        "lake and mountains nearby"
      ],
      "sleepingDetails": {
        "maxCapacity": 11,
        "amountOfBeds": 3
      },
      "checkInHour": "12pm",
      "checkOutHour": "10am",
      "distanceFromCityCenterInKM": 5,
      "contactDetails": {
        "phone": "1-442-684-3163 x50584",
        "email": "Gerry_Jones@yahoo.com"
      }
    },
    {
      "id": 64,
      "location": {
        "postalCode": "59247-7470",
        "name": "West Mikelmouth"
      },
      "pricePerNightInEUR": 93.59,
      "rating": 5,
      "capacity": 7,
      "name": "portly rosy",
      "albumId": 105,
      "venueId": 64,
      "numberOfReviews": 359,
      "description": "Beatae comburo umquam assumenda ea error carmen culpa. Claudeo cinis utilis astrum approbo validus crustulum vobis vitium. Vinco admoveo corporis annus cena cras.",
      "features": [
        "parking",
        "hypoallergenic bedding",
        "lake and mountains nearby",
        "TV",
        "fireplace"
      ],
      "sleepingDetails": {
        "maxCapacity": 9,
        "amountOfBeds": 4
      },
      "checkInHour": "12pm",
      "checkOutHour": "10am",
      "distanceFromCityCenterInKM": 15,
      "contactDetails": {
        "phone": "1-379-324-6860 x908",
        "email": "Shana.Veum@gmail.com"
      }
    },
    {
      "id": 65,
      "location": {
        "postalCode": "17262-0194",
        "name": "East Karl"
      },
      "pricePerNightInEUR": 153.79,
      "rating": 3.8,
      "capacity": 2,
      "name": "airline breastplate",
      "albumId": 205,
      "venueId": 65,
      "numberOfReviews": 278,
      "description": "Aperte textilis hic velum eos sapiente. Acer catena degenero celo degusto. Ultra colligo civitas clibanus totam repellendus deficio.",
      "features": [
        "bathroom facilities",
        "pet friendly",
        "fireplace",
        "kitchen facilities",
        "parking",
        "hypoallergenic bedding",
        "speakers",
        "WiFi",
        "TV",
        "lake and mountains nearby"
      ],
      "sleepingDetails": {
        "maxCapacity": 5,
        "amountOfBeds": 4
      },
      "checkInHour": "12pm",
      "checkOutHour": "10am",
      "distanceFromCityCenterInKM": 5,
      "contactDetails": {
        "phone": "356.394.7024 x8519",
        "email": "Timmy_Heathcote14@gmail.com"
      }
    },
    {
      "id": 66,
      "location": {
        "postalCode": "74804",
        "name": "Yesseniaburgh"
      },
      "pricePerNightInEUR": 37.29,
      "rating": 4.2,
      "capacity": 7,
      "name": "highly onto",
      "albumId": 415,
      "venueId": 66,
      "numberOfReviews": 473,
      "description": "Clamo verecundia volup demulceo. Campana talio comburo. Auditor temperantia unus.",
      "features": [
        "pet friendly",
        "speakers",
        "fireplace",
        "parking",
        "WiFi"
      ],
      "sleepingDetails": {
        "maxCapacity": 11,
        "amountOfBeds": 2
      },
      "checkInHour": "12pm",
      "checkOutHour": "10am",
      "distanceFromCityCenterInKM": 5,
      "contactDetails": {
        "phone": "1-341-364-8272",
        "email": "Tara.Koelpin@hotmail.com"
      }
    },
    {
      "id": 67,
      "location": {
        "postalCode": "39051-6835",
        "name": "East Ayanaview"
      },
      "pricePerNightInEUR": 108.48,
      "rating": 3.4,
      "capacity": 4,
      "name": "outlying against",
      "albumId": 334,
      "venueId": 67,
      "numberOfReviews": 437,
      "description": "Statua dens atrocitas nisi titulus utpote subito cetera considero. Talio uter aggero ago viduo careo traho. Deprimo vigor tenetur deficio volo crux vapulus.",
      "features": [
        "fireplace",
        "bathroom facilities",
        "pet friendly",
        "WiFi",
        "TV",
        "parking"
      ],
      "sleepingDetails": {
        "maxCapacity": 8,
        "amountOfBeds": 5
      },
      "checkInHour": "12pm",
      "checkOutHour": "10am",
      "distanceFromCityCenterInKM": 5,
      "contactDetails": {
        "phone": "1-723-992-0353 x25362",
        "email": "Cara68@yahoo.com"
      }
    },
    {
      "id": 68,
      "location": {
        "postalCode": "26900-5004",
        "name": "Okunevaberg"
      },
      "pricePerNightInEUR": 145.97,
      "rating": 3.7,
      "capacity": 7,
      "name": "verbally violin",
      "albumId": 463,
      "venueId": 68,
      "numberOfReviews": 458,
      "description": "Totidem temeritas desino vesica sono terebro auctus. Curto verecundia terga taceo totus spero coerceo aranea tempore. Absconditus correptius thesis vis creber.",
      "features": [
        "parking",
        "lake and mountains nearby",
        "pet friendly",
        "kitchen facilities",
        "speakers",
        "TV",
        "fireplace"
      ],
      "sleepingDetails": {
        "maxCapacity": 11,
        "amountOfBeds": 6
      },
      "checkInHour": "12pm",
      "checkOutHour": "10am",
      "distanceFromCityCenterInKM": 2,
      "contactDetails": {
        "phone": "684-731-0990",
        "email": "Amelie.Tremblay1@hotmail.com"
      }
    },
    {
      "id": 69,
      "location": {
        "postalCode": "58342-3589",
        "name": "Pocatello"
      },
      "pricePerNightInEUR": 55.01,
      "rating": 4,
      "capacity": 5,
      "name": "reschedule yowza",
      "albumId": 2,
      "venueId": 69,
      "numberOfReviews": 33,
      "description": "Super corpus causa decet. Thymum versus succedo benigne agnosco consequuntur. Vehemens deleo talus utpote.",
      "features": [
        "TV",
        "lake and mountains nearby",
        "speakers",
        "kitchen facilities",
        "parking",
        "bathroom facilities",
        "fireplace",
        "hypoallergenic bedding"
      ],
      "sleepingDetails": {
        "maxCapacity": 8,
        "amountOfBeds": 3
      },
      "checkInHour": "12pm",
      "checkOutHour": "10am",
      "distanceFromCityCenterInKM": 7,
      "contactDetails": {
        "phone": "1-590-278-9632 x883",
        "email": "Audra41@gmail.com"
      }
    },
    {
      "id": 70,
      "location": {
        "postalCode": "24271",
        "name": "West Winifred"
      },
      "pricePerNightInEUR": 102.67,
      "rating": 3.6,
      "capacity": 10,
      "name": "questionably immediate",
      "albumId": 332,
      "venueId": 70,
      "numberOfReviews": 267,
      "description": "Allatus vestrum addo animi deripio. Cubitum cursim tracto certus universe. Magni adversus tego amo subseco cruentus ratione carmen.",
      "features": [
        "pet friendly",
        "hypoallergenic bedding",
        "kitchen facilities",
        "bathroom facilities",
        "TV"
      ],
      "sleepingDetails": {
        "maxCapacity": 14,
        "amountOfBeds": 6
      },
      "checkInHour": "12pm",
      "checkOutHour": "10am",
      "distanceFromCityCenterInKM": 15,
      "contactDetails": {
        "phone": "(861) 426-9737 x6876",
        "email": "Keven_Morissette60@yahoo.com"
      }
    },
    {
      "id": 71,
      "location": {
        "postalCode": "13409",
        "name": "Port Garrick"
      },
      "pricePerNightInEUR": 70.49,
      "rating": 4,
      "capacity": 7,
      "name": "ah talkative",
      "albumId": 101,
      "venueId": 71,
      "numberOfReviews": 260,
      "description": "Amor delectatio spoliatio consuasor recusandae denuo. Amplexus compono triduana thymbra vulgivagus carmen. Adiuvo sumo clibanus cognomen vaco sono quam pauci accommodo.",
      "features": [
        "pet friendly",
        "lake and mountains nearby",
        "WiFi",
        "TV",
        "parking"
      ],
      "sleepingDetails": {
        "maxCapacity": 9,
        "amountOfBeds": 4
      },
      "checkInHour": "12pm",
      "checkOutHour": "10am",
      "distanceFromCityCenterInKM": 4,
      "contactDetails": {
        "phone": "1-489-775-7325",
        "email": "Bennie_Pollich@hotmail.com"
      }
    },
    {
      "id": 72,
      "location": {
        "postalCode": "27754-7657",
        "name": "Fannytown"
      },
      "pricePerNightInEUR": 41.97,
      "rating": 3.3,
      "capacity": 2,
      "name": "legislature baa",
      "albumId": 144,
      "venueId": 72,
      "numberOfReviews": 351,
      "description": "Virgo aegrus voluptatum deficio adfero culpo cimentarius decerno allatus. Denuncio vicinus enim valde nihil. Demulceo calco aetas acies comburo clibanus optio.",
      "features": [
        "TV",
        "hypoallergenic bedding",
        "pet friendly",
        "parking",
        "kitchen facilities",
        "speakers",
        "fireplace"
      ],
      "sleepingDetails": {
        "maxCapacity": 6,
        "amountOfBeds": 4
      },
      "checkInHour": "12pm",
      "checkOutHour": "10am",
      "distanceFromCityCenterInKM": 7,
      "contactDetails": {
        "phone": "606-917-2087 x53464",
        "email": "Stevie20@gmail.com"
      }
    },
    {
      "id": 73,
      "location": {
        "postalCode": "08729",
        "name": "Bloomington"
      },
      "pricePerNightInEUR": 111.79,
      "rating": 4.8,
      "capacity": 2,
      "name": "own super",
      "albumId": 410,
      "venueId": 73,
      "numberOfReviews": 419,
      "description": "Adicio cernuus amaritudo pecco cerno vallum ipsa consuasor. Universe cena peior ut tersus. Vivo amo deporto velit corpus.",
      "features": [
        "parking",
        "speakers",
        "fireplace",
        "kitchen facilities",
        "TV"
      ],
      "sleepingDetails": {
        "maxCapacity": 6,
        "amountOfBeds": 6
      },
      "checkInHour": "12pm",
      "checkOutHour": "10am",
      "distanceFromCityCenterInKM": 7,
      "contactDetails": {
        "phone": "1-406-979-8788 x555",
        "email": "Jordan.Ebert-Okuneva@yahoo.com"
      }
    },
    {
      "id": 74,
      "location": {
        "postalCode": "94552",
        "name": "Pinellas Park"
      },
      "pricePerNightInEUR": 35.49,
      "rating": 3.7,
      "capacity": 9,
      "name": "incidentally acidic",
      "albumId": 461,
      "venueId": 74,
      "numberOfReviews": 196,
      "description": "Cerno temptatio depromo curia conservo carus ter. Adinventitias thesaurus crux conventus. Vigor debeo ancilla ustulo.",
      "features": [
        "speakers",
        "parking",
        "fireplace",
        "hypoallergenic bedding",
        "WiFi",
        "TV",
        "pet friendly"
      ],
      "sleepingDetails": {
        "maxCapacity": 13,
        "amountOfBeds": 4
      },
      "checkInHour": "12pm",
      "checkOutHour": "10am",
      "distanceFromCityCenterInKM": 11,
      "contactDetails": {
        "phone": "1-570-364-3627 x94292",
        "email": "Clyde24@gmail.com"
      }
    },
    {
      "id": 75,
      "location": {
        "postalCode": "41131",
        "name": "Provo"
      },
      "pricePerNightInEUR": 85.5,
      "rating": 3.5,
      "capacity": 4,
      "name": "neglect circa",
      "albumId": 270,
      "venueId": 75,
      "numberOfReviews": 59,
      "description": "Amet admoneo considero tendo. Deinde harum volup thorax turpis tubineus credo. Ciminatio sumptus vespillo trans.",
      "features": [
        "hypoallergenic bedding",
        "parking",
        "WiFi",
        "kitchen facilities",
        "TV",
        "speakers"
      ],
      "sleepingDetails": {
        "maxCapacity": 6,
        "amountOfBeds": 3
      },
      "checkInHour": "12pm",
      "checkOutHour": "10am",
      "distanceFromCityCenterInKM": 14,
      "contactDetails": {
        "phone": "894.917.6968 x8774",
        "email": "Josiah41@hotmail.com"
      }
    },
    {
      "id": 76,
      "location": {
        "postalCode": "91296",
        "name": "Kevonstad"
      },
      "pricePerNightInEUR": 191.08,
      "rating": 4.8,
      "capacity": 4,
      "name": "lest highly",
      "albumId": 456,
      "venueId": 76,
      "numberOfReviews": 243,
      "description": "Urbanus supellex aureus bestia bos suppono certe amiculum. Cuius curo tabernus vita decor speciosus aegrotatio. Utpote arceo desino facilis aqua capitulus.",
      "features": [
        "pet friendly",
        "TV",
        "hypoallergenic bedding",
        "WiFi",
        "bathroom facilities",
        "lake and mountains nearby",
        "fireplace"
      ],
      "sleepingDetails": {
        "maxCapacity": 7,
        "amountOfBeds": 5
      },
      "checkInHour": "12pm",
      "checkOutHour": "10am",
      "distanceFromCityCenterInKM": 5,
      "contactDetails": {
        "phone": "1-665-619-2457 x35176",
        "email": "Kassandra26@gmail.com"
      }
    },
    {
      "id": 77,
      "location": {
        "postalCode": "50373",
        "name": "Stiedemannfort"
      },
      "pricePerNightInEUR": 26.74,
      "rating": 4.8,
      "capacity": 6,
      "name": "instead knowledgeably",
      "albumId": 355,
      "venueId": 77,
      "numberOfReviews": 409,
      "description": "Allatus cedo crebro cervus. Architecto viridis vicissitudo agnitio vereor spectaculum delectatio spargo ut. Crepusculum contra magni caterva super trepide viduo varius supra.",
      "features": [
        "TV",
        "parking",
        "bathroom facilities",
        "pet friendly",
        "fireplace",
        "kitchen facilities"
      ],
      "sleepingDetails": {
        "maxCapacity": 8,
        "amountOfBeds": 4
      },
      "checkInHour": "12pm",
      "checkOutHour": "10am",
      "distanceFromCityCenterInKM": 5,
      "contactDetails": {
        "phone": "542.606.6014 x00444",
        "email": "Gunnar87@hotmail.com"
      }
    },
    {
      "id": 78,
      "location": {
        "postalCode": "90463-0162",
        "name": "Katrinashire"
      },
      "pricePerNightInEUR": 84.51,
      "rating": 3.2,
      "capacity": 8,
      "name": "mid ameliorate",
      "albumId": 79,
      "venueId": 78,
      "numberOfReviews": 426,
      "description": "Distinctio venia voco thema una. Tametsi casus valetudo arcus id tenus. Supplanto tamdiu iste calamitas.",
      "features": [
        "pet friendly",
        "kitchen facilities",
        "fireplace",
        "lake and mountains nearby",
        "parking",
        "bathroom facilities",
        "speakers",
        "TV",
        "hypoallergenic bedding",
        "WiFi"
      ],
      "sleepingDetails": {
        "maxCapacity": 12,
        "amountOfBeds": 2
      },
      "checkInHour": "12pm",
      "checkOutHour": "10am",
      "distanceFromCityCenterInKM": 7,
      "contactDetails": {
        "phone": "1-929-761-7327",
        "email": "Brannon45@yahoo.com"
      }
    },
    {
      "id": 79,
      "location": {
        "postalCode": "48624",
        "name": "Daynaboro"
      },
      "pricePerNightInEUR": 151.96,
      "rating": 3.6,
      "capacity": 4,
      "name": "off cheerfully",
      "albumId": 395,
      "venueId": 79,
      "numberOfReviews": 101,
      "description": "Crustulum abduco canis defetiscor thymbra denuncio. Conicio contigo vergo vobis aer. Delectus complectus ratione contabesco victus sophismata.",
      "features": [
        "kitchen facilities",
        "lake and mountains nearby",
        "hypoallergenic bedding",
        "pet friendly",
        "parking",
        "speakers",
        "TV",
        "fireplace"
      ],
      "sleepingDetails": {
        "maxCapacity": 6,
        "amountOfBeds": 4
      },
      "checkInHour": "12pm",
      "checkOutHour": "10am",
      "distanceFromCityCenterInKM": 15,
      "contactDetails": {
        "phone": "(836) 838-9606 x841",
        "email": "Magali_Hilll@gmail.com"
      }
    },
    {
      "id": 80,
      "location": {
        "postalCode": "38766",
        "name": "East Cordelia"
      },
      "pricePerNightInEUR": 62.14,
      "rating": 4.7,
      "capacity": 6,
      "name": "dispense whereas",
      "albumId": 411,
      "venueId": 80,
      "numberOfReviews": 151,
      "description": "Numquam voluptate repellat maxime comitatus unde turba. Aptus uredo delectus uter. Depono curiositas ex voro.",
      "features": [
        "TV",
        "hypoallergenic bedding",
        "speakers",
        "kitchen facilities",
        "bathroom facilities",
        "pet friendly",
        "WiFi"
      ],
      "sleepingDetails": {
        "maxCapacity": 10,
        "amountOfBeds": 5
      },
      "checkInHour": "12pm",
      "checkOutHour": "10am",
      "distanceFromCityCenterInKM": 10,
      "contactDetails": {
        "phone": "1-593-395-6012 x520",
        "email": "Maxine49@yahoo.com"
      }
    },
    {
      "id": 81,
      "location": {
        "postalCode": "82578",
        "name": "Waterloo"
      },
      "pricePerNightInEUR": 86.65,
      "rating": 4.7,
      "capacity": 5,
      "name": "discourse upright",
      "albumId": 23,
      "venueId": 81,
      "numberOfReviews": 48,
      "description": "Tergo bene adopto. Tripudio clam subiungo xiphias vinitor coadunatio vorax. Similique demonstro stultus comminor curo tergo deleo caecus ait.",
      "features": [
        "pet friendly",
        "hypoallergenic bedding",
        "parking",
        "kitchen facilities",
        "TV",
        "lake and mountains nearby",
        "fireplace",
        "speakers",
        "bathroom facilities"
      ],
      "sleepingDetails": {
        "maxCapacity": 9,
        "amountOfBeds": 5
      },
      "checkInHour": "12pm",
      "checkOutHour": "10am",
      "distanceFromCityCenterInKM": 14,
      "contactDetails": {
        "phone": "1-303-638-0604 x7313",
        "email": "Terrance_Metz@yahoo.com"
      }
    },
    {
      "id": 82,
      "location": {
        "postalCode": "99656-7607",
        "name": "South Heidiworth"
      },
      "pricePerNightInEUR": 142.44,
      "rating": 4.4,
      "capacity": 4,
      "name": "pity ick",
      "albumId": 497,
      "venueId": 82,
      "numberOfReviews": 457,
      "description": "Spiculum virtus apto auxilium derideo amaritudo reprehenderit allatus stipes ubi. Supra cattus turbo culpa thesis. Uberrime crur deprimo virtus cubo depulso deduco enim celo.",
      "features": [
        "lake and mountains nearby",
        "pet friendly",
        "WiFi",
        "parking",
        "hypoallergenic bedding",
        "fireplace",
        "TV",
        "bathroom facilities",
        "speakers",
        "kitchen facilities"
      ],
      "sleepingDetails": {
        "maxCapacity": 7,
        "amountOfBeds": 3
      },
      "checkInHour": "12pm",
      "checkOutHour": "10am",
      "distanceFromCityCenterInKM": 3,
      "contactDetails": {
        "phone": "(513) 620-9204 x4265",
        "email": "Melissa_Wiza16@gmail.com"
      }
    },
    {
      "id": 83,
      "location": {
        "postalCode": "10114-7249",
        "name": "East Zulashire"
      },
      "pricePerNightInEUR": 135.08,
      "rating": 4.9,
      "capacity": 7,
      "name": "keenly to",
      "albumId": 497,
      "venueId": 83,
      "numberOfReviews": 460,
      "description": "Admoneo cornu vestigium. Reiciendis decerno alo nobis. Adopto sint surculus teneo tenuis spargo.",
      "features": [
        "pet friendly",
        "parking",
        "hypoallergenic bedding",
        "kitchen facilities",
        "fireplace",
        "speakers",
        "lake and mountains nearby",
        "bathroom facilities"
      ],
      "sleepingDetails": {
        "maxCapacity": 10,
        "amountOfBeds": 2
      },
      "checkInHour": "12pm",
      "checkOutHour": "10am",
      "distanceFromCityCenterInKM": 9,
      "contactDetails": {
        "phone": "956.873.9902 x005",
        "email": "Otilia35@hotmail.com"
      }
    },
    {
      "id": 84,
      "location": {
        "postalCode": "20613-3864",
        "name": "Hayliefurt"
      },
      "pricePerNightInEUR": 29.81,
      "rating": 4.9,
      "capacity": 2,
      "name": "shell between",
      "albumId": 169,
      "venueId": 84,
      "numberOfReviews": 344,
      "description": "Ut thermae utroque. Tristis virga tamdiu aetas triumphus. Temptatio tutis conturbo decipio vulgivagus communis vir iusto confido expedita.",
      "features": [
        "lake and mountains nearby",
        "parking",
        "kitchen facilities",
        "pet friendly",
        "bathroom facilities",
        "WiFi",
        "TV"
      ],
      "sleepingDetails": {
        "maxCapacity": 5,
        "amountOfBeds": 4
      },
      "checkInHour": "12pm",
      "checkOutHour": "10am",
      "distanceFromCityCenterInKM": 1,
      "contactDetails": {
        "phone": "1-522-482-5332 x312",
        "email": "Whitney_Strosin@gmail.com"
      }
    },
    {
      "id": 85,
      "location": {
        "postalCode": "61728-8469",
        "name": "Port Velmaside"
      },
      "pricePerNightInEUR": 168.8,
      "rating": 3.8,
      "capacity": 3,
      "name": "glittering because",
      "albumId": 419,
      "venueId": 85,
      "numberOfReviews": 11,
      "description": "Tibi cupiditas autem coerceo. Animadverto subvenio taceo paulatim titulus aeger synagoga terra attero casus. Absum architecto caelum cohaero.",
      "features": [
        "pet friendly",
        "lake and mountains nearby",
        "parking",
        "fireplace",
        "kitchen facilities",
        "TV"
      ],
      "sleepingDetails": {
        "maxCapacity": 5,
        "amountOfBeds": 5
      },
      "checkInHour": "12pm",
      "checkOutHour": "10am",
      "distanceFromCityCenterInKM": 4,
      "contactDetails": {
        "phone": "(651) 223-8913 x636",
        "email": "Allie_Bartoletti43@hotmail.com"
      }
    },
    {
      "id": 86,
      "location": {
        "postalCode": "88802",
        "name": "Lake Blazeberg"
      },
      "pricePerNightInEUR": 69.86,
      "rating": 3.1,
      "capacity": 9,
      "name": "assist how",
      "albumId": 32,
      "venueId": 86,
      "numberOfReviews": 189,
      "description": "Laudantium admoneo commodi viscus aedificium apparatus caritas fugiat censura pectus. Statua tibi supellex decerno voluptatum calculus angelus. Blanditiis dapifer exercitationem utilis celo unus adiuvo enim.",
      "features": [
        "pet friendly",
        "lake and mountains nearby",
        "parking",
        "kitchen facilities",
        "bathroom facilities",
        "TV",
        "WiFi",
        "hypoallergenic bedding",
        "fireplace",
        "speakers"
      ],
      "sleepingDetails": {
        "maxCapacity": 13,
        "amountOfBeds": 2
      },
      "checkInHour": "12pm",
      "checkOutHour": "10am",
      "distanceFromCityCenterInKM": 15,
      "contactDetails": {
        "phone": "389-898-9609",
        "email": "Mckenzie48@gmail.com"
      }
    },
    {
      "id": 87,
      "location": {
        "postalCode": "72547-4755",
        "name": "Biloxi"
      },
      "pricePerNightInEUR": 83.17,
      "rating": 4,
      "capacity": 9,
      "name": "meh fooey",
      "albumId": 488,
      "venueId": 87,
      "numberOfReviews": 149,
      "description": "Fugiat depereo contra. Centum deripio decerno placeat expedita unus quis ascisco. Arbustum caute aequitas appello.",
      "features": [
        "speakers",
        "WiFi",
        "pet friendly",
        "TV",
        "kitchen facilities",
        "lake and mountains nearby"
      ],
      "sleepingDetails": {
        "maxCapacity": 13,
        "amountOfBeds": 3
      },
      "checkInHour": "12pm",
      "checkOutHour": "10am",
      "distanceFromCityCenterInKM": 3,
      "contactDetails": {
        "phone": "1-943-490-2691 x26232",
        "email": "Antwan_Grant93@gmail.com"
      }
    },
    {
      "id": 88,
      "location": {
        "postalCode": "92413",
        "name": "Rippinmouth"
      },
      "pricePerNightInEUR": 79.41,
      "rating": 3.2,
      "capacity": 5,
      "name": "unto although",
      "albumId": 168,
      "venueId": 88,
      "numberOfReviews": 305,
      "description": "Armarium blanditiis enim officiis aut vinum rem aegrus facere derideo. Autus adinventitias temeritas despecto aiunt corporis custodia taedium vito. Cursim coaegresco conculco suffoco audio.",
      "features": [
        "fireplace",
        "pet friendly",
        "lake and mountains nearby",
        "TV",
        "bathroom facilities",
        "hypoallergenic bedding",
        "speakers",
        "kitchen facilities",
        "parking"
      ],
      "sleepingDetails": {
        "maxCapacity": 7,
        "amountOfBeds": 5
      },
      "checkInHour": "12pm",
      "checkOutHour": "10am",
      "distanceFromCityCenterInKM": 7,
      "contactDetails": {
        "phone": "301.353.1238 x3021",
        "email": "Roosevelt_Rolfson74@hotmail.com"
      }
    },
    {
      "id": 89,
      "location": {
        "postalCode": "92318",
        "name": "West Retha"
      },
      "pricePerNightInEUR": 162.86,
      "rating": 3.9,
      "capacity": 9,
      "name": "made-up midst",
      "albumId": 424,
      "venueId": 89,
      "numberOfReviews": 438,
      "description": "Supra sequi cruentus adipiscor cupiditas. Veniam comedo valeo cito. Velit peior vergo tutis adfectus deputo adamo.",
      "features": [
        "fireplace",
        "WiFi",
        "hypoallergenic bedding",
        "parking",
        "lake and mountains nearby",
        "speakers",
        "TV"
      ],
      "sleepingDetails": {
        "maxCapacity": 12,
        "amountOfBeds": 5
      },
      "checkInHour": "12pm",
      "checkOutHour": "10am",
      "distanceFromCityCenterInKM": 10,
      "contactDetails": {
        "phone": "941.648.9270 x3651",
        "email": "Keyshawn_Schneider@hotmail.com"
      }
    },
    {
      "id": 90,
      "location": {
        "postalCode": "66691-7546",
        "name": "Emmetport"
      },
      "pricePerNightInEUR": 137.67,
      "rating": 3.1,
      "capacity": 3,
      "name": "nor punctuation",
      "albumId": 28,
      "venueId": 90,
      "numberOfReviews": 328,
      "description": "Doloribus cito socius caries sponte vulticulus dedico ademptio. Accommodo decerno delego incidunt tristis. Commodi verbum vulgaris somnus quis ad tersus.",
      "features": [
        "WiFi",
        "fireplace",
        "pet friendly",
        "bathroom facilities",
        "parking",
        "hypoallergenic bedding"
      ],
      "sleepingDetails": {
        "maxCapacity": 6,
        "amountOfBeds": 4
      },
      "checkInHour": "12pm",
      "checkOutHour": "10am",
      "distanceFromCityCenterInKM": 7,
      "contactDetails": {
        "phone": "410-442-4573",
        "email": "Dock93@gmail.com"
      }
    },
    {
      "id": 91,
      "location": {
        "postalCode": "30542-2191",
        "name": "Muellershire"
      },
      "pricePerNightInEUR": 31.54,
      "rating": 5,
      "capacity": 8,
      "name": "grimy young",
      "albumId": 367,
      "venueId": 91,
      "numberOfReviews": 381,
      "description": "Rem summopere substantia cum aptus unde. Terminatio tergo appositus comptus ager quisquam adiuvo. Careo tergo cauda cernuus administratio.",
      "features": [
        "WiFi",
        "hypoallergenic bedding",
        "TV",
        "fireplace",
        "lake and mountains nearby",
        "kitchen facilities",
        "bathroom facilities",
        "speakers",
        "parking",
        "pet friendly"
      ],
      "sleepingDetails": {
        "maxCapacity": 12,
        "amountOfBeds": 6
      },
      "checkInHour": "12pm",
      "checkOutHour": "10am",
      "distanceFromCityCenterInKM": 9,
      "contactDetails": {
        "phone": "587.923.0135",
        "email": "Rory29@gmail.com"
      }
    },
    {
      "id": 92,
      "location": {
        "postalCode": "04818-6497",
        "name": "Wilmerside"
      },
      "pricePerNightInEUR": 29.45,
      "rating": 4.3,
      "capacity": 7,
      "name": "oh under",
      "albumId": 199,
      "venueId": 92,
      "numberOfReviews": 500,
      "description": "Amitto uter vinum calculus nihil tertius. Celer crebro bardus. Demo adsum possimus.",
      "features": [
        "bathroom facilities",
        "lake and mountains nearby",
        "fireplace",
        "pet friendly",
        "hypoallergenic bedding",
        "speakers",
        "TV",
        "parking",
        "WiFi",
        "kitchen facilities"
      ],
      "sleepingDetails": {
        "maxCapacity": 10,
        "amountOfBeds": 4
      },
      "checkInHour": "12pm",
      "checkOutHour": "10am",
      "distanceFromCityCenterInKM": 12,
      "contactDetails": {
        "phone": "306-969-1839 x96513",
        "email": "Tomasa11@yahoo.com"
      }
    },
    {
      "id": 93,
      "location": {
        "postalCode": "28155-6130",
        "name": "Tedburgh"
      },
      "pricePerNightInEUR": 47.09,
      "rating": 3.4,
      "capacity": 9,
      "name": "store bah",
      "albumId": 500,
      "venueId": 93,
      "numberOfReviews": 368,
      "description": "Demulceo totam aestivus suffragium utique curo crustulum confido. Sono demoror impedit comis earum aestus aggero beneficium rem. Conculco certe demergo demoror alveus.",
      "features": [
        "WiFi",
        "speakers",
        "TV",
        "kitchen facilities",
        "hypoallergenic bedding",
        "pet friendly",
        "lake and mountains nearby",
        "bathroom facilities"
      ],
      "sleepingDetails": {
        "maxCapacity": 12,
        "amountOfBeds": 6
      },
      "checkInHour": "12pm",
      "checkOutHour": "10am",
      "distanceFromCityCenterInKM": 14,
      "contactDetails": {
        "phone": "(666) 440-3598 x2326",
        "email": "Reuben99@yahoo.com"
      }
    },
    {
      "id": 94,
      "location": {
        "postalCode": "26677",
        "name": "Kiaraburgh"
      },
      "pricePerNightInEUR": 195.08,
      "rating": 3.1,
      "capacity": 4,
      "name": "elastic hmph",
      "albumId": 379,
      "venueId": 94,
      "numberOfReviews": 442,
      "description": "Apud voco totus. Turbo suscipit cohors acies bonus angustus esse repellendus. Audentia cupressus umbra.",
      "features": [
        "TV",
        "bathroom facilities",
        "kitchen facilities",
        "pet friendly",
        "fireplace",
        "WiFi",
        "parking",
        "hypoallergenic bedding",
        "speakers"
      ],
      "sleepingDetails": {
        "maxCapacity": 8,
        "amountOfBeds": 4
      },
      "checkInHour": "12pm",
      "checkOutHour": "10am",
      "distanceFromCityCenterInKM": 15,
      "contactDetails": {
        "phone": "(440) 397-6352",
        "email": "Ally_Simonis@hotmail.com"
      }
    },
    {
      "id": 95,
      "location": {
        "postalCode": "35583",
        "name": "East Leilaniboro"
      },
      "pricePerNightInEUR": 97.17,
      "rating": 3.9,
      "capacity": 10,
      "name": "valiantly fearless",
      "albumId": 18,
      "venueId": 95,
      "numberOfReviews": 372,
      "description": "Illum vinitor iure vis tergo labore. Arx aperte suasoria tabesco hic. Vilitas curriculum tabesco succurro tristis canonicus vorax tondeo audacia vita.",
      "features": [
        "parking",
        "WiFi",
        "kitchen facilities",
        "hypoallergenic bedding",
        "bathroom facilities",
        "fireplace",
        "speakers"
      ],
      "sleepingDetails": {
        "maxCapacity": 14,
        "amountOfBeds": 2
      },
      "checkInHour": "12pm",
      "checkOutHour": "10am",
      "distanceFromCityCenterInKM": 14,
      "contactDetails": {
        "phone": "419-533-6481 x82298",
        "email": "Andy.Schiller49@hotmail.com"
      }
    },
    {
      "id": 96,
      "location": {
        "postalCode": "56545",
        "name": "Tysonville"
      },
      "pricePerNightInEUR": 129.67,
      "rating": 4.3,
      "capacity": 6,
      "name": "gigantic consequently",
      "albumId": 250,
      "venueId": 96,
      "numberOfReviews": 202,
      "description": "Absque conservo deficio ago adulescens benevolentia illum. Cenaculum sursum pecco beatus caute. Strues decet summa vergo quibusdam studio cubo supra claudeo quidem.",
      "features": [
        "fireplace",
        "WiFi",
        "hypoallergenic bedding",
        "speakers",
        "lake and mountains nearby",
        "TV",
        "kitchen facilities",
        "parking",
        "pet friendly"
      ],
      "sleepingDetails": {
        "maxCapacity": 8,
        "amountOfBeds": 3
      },
      "checkInHour": "12pm",
      "checkOutHour": "10am",
      "distanceFromCityCenterInKM": 12,
      "contactDetails": {
        "phone": "875.784.4745 x3898",
        "email": "Deonte83@gmail.com"
      }
    },
    {
      "id": 97,
      "location": {
        "postalCode": "57390-7144",
        "name": "Jamisonland"
      },
      "pricePerNightInEUR": 36.32,
      "rating": 4.8,
      "capacity": 9,
      "name": "and ignorant",
      "albumId": 342,
      "venueId": 97,
      "numberOfReviews": 199,
      "description": "Tunc surgo vito villa surculus decipio. Amicitia vilis convoco bardus harum copia tabula succurro tristis combibo. Eligendi tempore clamo theatrum cui tergum sursum tantum.",
      "features": [
        "kitchen facilities",
        "pet friendly",
        "hypoallergenic bedding",
        "WiFi",
        "speakers",
        "bathroom facilities"
      ],
      "sleepingDetails": {
        "maxCapacity": 13,
        "amountOfBeds": 6
      },
      "checkInHour": "12pm",
      "checkOutHour": "10am",
      "distanceFromCityCenterInKM": 2,
      "contactDetails": {
        "phone": "(235) 609-6036",
        "email": "Presley.Labadie0@gmail.com"
      }
    },
    {
      "id": 98,
      "location": {
        "postalCode": "92095",
        "name": "Lake Reggieborough"
      },
      "pricePerNightInEUR": 113.49,
      "rating": 4.2,
      "capacity": 6,
      "name": "hollow indeed",
      "albumId": 180,
      "venueId": 98,
      "numberOfReviews": 154,
      "description": "Conduco tendo deprimo desidero. Argentum veritatis magni derideo una ter possimus. Caput dolorum admiratio solus corpus.",
      "features": [
        "hypoallergenic bedding",
        "pet friendly",
        "kitchen facilities",
        "WiFi",
        "speakers",
        "bathroom facilities"
      ],
      "sleepingDetails": {
        "maxCapacity": 10,
        "amountOfBeds": 6
      },
      "checkInHour": "12pm",
      "checkOutHour": "10am",
      "distanceFromCityCenterInKM": 13,
      "contactDetails": {
        "phone": "447-563-1687",
        "email": "Giovanna.Rogahn32@yahoo.com"
      }
    },
    {
      "id": 99,
      "location": {
        "postalCode": "82766-4873",
        "name": "West Guy"
      },
      "pricePerNightInEUR": 61.33,
      "rating": 3.1,
      "capacity": 9,
      "name": "or whoever",
      "albumId": 315,
      "venueId": 99,
      "numberOfReviews": 440,
      "description": "Coaegresco allatus aegrus arbitro trucido arx sol absorbeo. Termes viduo libero numquam cunabula tergiversatio doloremque avaritia tumultus. Cilicium trepide talis celebrer et.",
      "features": [
        "speakers",
        "WiFi",
        "kitchen facilities",
        "fireplace",
        "lake and mountains nearby",
        "hypoallergenic bedding",
        "parking",
        "bathroom facilities",
        "pet friendly",
        "TV"
      ],
      "sleepingDetails": {
        "maxCapacity": 11,
        "amountOfBeds": 6
      },
      "checkInHour": "12pm",
      "checkOutHour": "10am",
      "distanceFromCityCenterInKM": 5,
      "contactDetails": {
        "phone": "(313) 649-7850 x3836",
        "email": "Rubie60@gmail.com"
      }
    },
    {
      "id": 100,
      "location": {
        "postalCode": "18497",
        "name": "Adafort"
      },
      "pricePerNightInEUR": 85.11,
      "rating": 3.7,
      "capacity": 8,
      "name": "even dispense",
      "albumId": 288,
      "venueId": 100,
      "numberOfReviews": 31,
      "description": "Eligendi summisse defetiscor ars. Comminor stips abundans curso ciminatio uterque denuncio. Suscipit saepe abscido vestrum tibi contego aliqua patior esse cohaero.",
      "features": [
        "TV",
        "kitchen facilities",
        "WiFi",
        "hypoallergenic bedding",
        "lake and mountains nearby",
        "speakers",
        "fireplace",
        "pet friendly",
        "parking"
      ],
      "sleepingDetails": {
        "maxCapacity": 12,
        "amountOfBeds": 4
      },
      "checkInHour": "12pm",
      "checkOutHour": "10am",
      "distanceFromCityCenterInKM": 8,
      "contactDetails": {
        "phone": "1-237-957-2622 x632",
        "email": "Cleora_Greenholt82@hotmail.com"
      }
    }
  ]
}